id	lat	lon	name
255088149	41.0399185	28.9927537	Dolmabahçe Gazhane Caddesi
256097737	41.0114990	28.9607420	Vezneciler
266755354	40.9069747	29.2121952	Kartal Köprüsü
351098653	41.0084015	29.2178750	Sarıgazi Atatürk Caddesi
409699990	40.8976621	29.2236878	Keresteciler
503981763	41.0417056	29.0041421	Akaretler
503981772	41.0435526	29.0068968	Beşiktaş Meydan
530531953	41.0029578	29.1395721	Vural Sitesi
540739083	41.0598896	29.0315166	Esenevler
545645830	41.0041138	29.1373247	Osmangazi Caddesi
545645831	41.0037279	29.1377530	Osmangazi Caddesi
553303305	41.0473253	29.0081226	Barbaros Bulvarı
553303347	41.0480284	29.0078312	Barbaros Bulvarı
553303357	41.0512189	29.0084955	Yıldız Teknik Üniversitesi
553303371	41.0529498	29.0094660	Yıldız Teknik Üniversitesi
553303948	41.0515110	29.0089980	Yıldız Teknik Üniversitesi
553303961	41.0554521	29.0097459	Ertuğrul Sitesi
553303978	41.0562575	29.0095174	Ertuğrul Sitesi
553303991	41.0588688	29.0106706	Darphane
553304006	41.0581830	29.0101235	Darphane
553304048	41.0652360	29.0124039	Zincirlikuyu Metrobüs (SG-2)
553304105	41.0696260	29.0145253	Zincirlikuyu
553304122	41.0701146	29.0152734	Zincirlikuyu
576433075	41.0393185	28.8950600	Otogar
595767991	41.0370404	28.9910960	Gümüşsuyu
595767995	41.0346560	28.9926540	Kabataş
595800996	41.0495298	28.8855707	Yenihal
595801003	41.0371927	28.8894706	Otogar Yolu
595801034	41.0493150	28.9450680	Halıcıoğlu 6-Şehit Eren Bülbül;Halıcıoğlu 6 - Şehit Eren Bülbül
595801040	41.0532559	28.9613154	Nişangah
595801045	41.0660503	28.9723576	Prof.Dr.Cemil Taşçıoğlu Şehir Hastanesi
595801055	41.0648280	28.9795080	Çiftecevizler
595801064	41.0651993	28.9846768	Şişli Mesleki ve Teknik Anadolu Lisesi
595801081	41.0683500	28.9855270	İzzetpaşa
595801082	41.0674880	28.9892620	Karkuyusu
595801083	41.0668791	28.9967715	Mecidiyeköy Viyadük
617557657	41.0163234	29.1452646	Ihlamurevleri
617557659	41.0203772	29.1294727	Tepeüstü
663696420	41.0177435	29.0317215	Pazarbaşı
663696421	41.0206442	29.0352181	Marmara Üniversitesi İlahiyat Fakültesi
663696424	41.0221492	29.0448044	Altunizade
663696426	41.0365901	29.0436307	15 Temmuz Şehitler Köprüsü
663696429	41.0156923	29.0291937	Üsküdar Askerlik Şubesi
663886611	41.0487506	28.9877473	Harbiye Askeri Müze
663886612	41.0512382	28.9876475	Pangaltı
663886614	41.0547352	28.9871911	Osmanbey
663886615	41.0573909	28.9870481	Şişli Hamidiye Etfal
663886616	41.0623003	28.9895230	Şişli Camii
663886617	41.0638710	28.9921205	Şişli Merkez
663886618	41.0662518	28.9959383	Mecidiyeköy Viyadük
663886619	41.0689602	29.0111651	Zincirlikuyu
769896276	41.0073000	29.0349890	Koşuyolu Caddesi
769896329	41.0094020	29.0369240	Koşuyolu
795615059	40.9909261	28.8378477	Yenibosna Metro
894170312	41.0452112	28.8137850	İkitelli Köprüsü
921229647	41.0310360	28.8975246	
939123647	40.9080084	29.3148492	Sabiha Gökçen Havalimanı
1128839423	41.0639947	28.6806826	Funda
1128840931	41.0684909	28.6840552	Bahçeşehir Camii
1389063708	41.0619459	28.9673916	Darülaceze - Perpa
1412862958	41.0049099	28.9354367	Adli Tıp
1436025857	41.0018393	29.0415576	Kuruçeşme
1436025860	41.0020396	29.0416175	Kuruçeşme
1514370862	40.9865037	29.1229497	Çiçek Kent
1524555760	41.0875535	29.0070915	4. Levent
1667912709	40.9936699	29.1113995	Mimar Sinan Camii
1673490909	40.9507183	29.1642533	Barbaros Hayrettin Paşa İlkokulu
1690847714	40.9984398	29.0738410	Bağkur Evleri
1690847734	41.0006997	29.0735962	Esin Sitesi
1706465760	41.0364640	29.0431115	15 Temmuz Şehitler Köprüsü
1749546152	41.0389157	29.0555281	Ayçin Sokak
1749550031	41.0364683	29.0590349	Saray
1749550033	41.0384318	29.0581197	Yunus Emre Sağlık Ocağı
1757620440	40.9888884	29.0426242	Ziverbey
1757620442	40.9882089	29.0434749	Ziverbey
1769501345	41.0037493	29.0440315	Kadıköy Ahmet Sani Gezici Kız Anadolu İmam Hatip Lisesi
1769501749	41.0037297	29.0443175	Kadıköy Ahmet Sani Gezici Kız Anadolu İmam Hatip Lisesi
1769502644	41.0056720	29.0462571	Marmara Üniversitesi Güzel Sanatlar Fakültesi
1773243353	41.0444116	28.9949658	Maçka Durağı
1773246123	41.0502366	28.9931328	Nişantaşı durağı
1773247954	41.0535393	28.9879411	Osmanbey
1773250371	41.0474007	28.9944641	Teşvikiye
1832196141	41.0193718	28.6312009	Beykent Metrobüs Durağı;Beykent
1863737211	40.9470178	29.1080167	Küçukyalı
1866937778	40.9778857	29.0786136	Ethemefendi
1867400943	40.9853273	28.7826692	Cennet Mahallesi
1867720187	40.9864753	28.7700706	Küçükçekmece
1869587957	41.0216829	29.1303352	Tepeüstü
1920228345	41.0501448	29.0762412	Çamlıktepe Camii
1923694481	41.0082421	29.2190853	Sarıgazi Atatürk Caddesi
1988045213	40.8984938	29.2178680	Topselvi Otobüs Durağı
2104800122	41.0820769	28.9519546	Çobançeşme
2104800938	41.0827617	28.9518115	Çobançeşme
2104823860	41.0804410	28.9512974	Fabrikalar
2110966448	41.0123762	28.9531199	Oruçgazi
2198045902	40.9987436	29.0376951	
2198045909	40.9986270	29.0379171	Sakızağacı
2201644152	41.1678951	29.0565330	Hacı Ömer Meydanı
2201646431	41.1670970	29.0574230	Sarıyer Merkez
2205347123	40.9755763	29.1122716	Nuri Cıngıllıoğlu Mesleki ve Teknik Anadolu Lisesi
2205347134	40.9700673	29.1149919	Ziyapaşa
2205347136	40.9733354	29.1138703	Yeni Yol
2205347141	40.9713126	29.1179855	Güvenlik (yalnızca 19F bu durakta durur)
2205347150	40.9705504	29.1113396	İçerenköy
2205347155	40.9709755	29.1127065	Yahya Kemal Beyatlı Ortaokulu
2205347159	40.9758125	29.1226506	Hasan Leyli İlkokulu
2205347163	40.9735661	29.1200218	İçerenköy Polis Merkezi
2205347166	40.9690118	29.1158906	İçerenköy
2205347178	40.9699411	29.1099751	İçerenköy Mezarlığı
2205347179	40.9734373	29.1137918	Yeni Yol
2205347180	40.9782867	29.1141605	Selçuklar Camii
2205347192	40.9763234	29.1143268	Nuri Cıngıllıoğlu Mesleki ve Teknik Anadolu Lisesi
2246642429	41.0069036	29.2106293	Namık Kemal Caddesi
2252652400	41.0139212	29.1895147	Çekmeköy Metro
2252676353	41.0229900	29.1848973	Çekmeköy Spor Kompleksi;Çekmeköy Spor Salonu
2252682546	41.0254610	29.1931560	Öğretmenler Sitesi
2256012052	41.0236310	29.1780630	Plazalar
2258295697	41.0319817	29.1731083	Mimar Sinan Caddesi
2259746827	41.0258133	29.1814234	Dereyolu;Arkadaş Sokak
2259746831	41.0286530	29.1826730	Tepe;Bayraktar Sokak
2259746832	41.0308047	29.1839442	Refah Camii
2260662519	41.0208600	29.1928820	Erciyes Sokak
2261196361	41.0664295	29.0017606	Ali Sami Yen
2268511644	41.0195590	29.1923440	Pazaryeri
2268511665	41.0164080	29.1910010	Şahinbey Caddesi
2274989151	41.0668772	29.0019458	Ali Sami Yen
2275165989	41.0163680	29.1650930	Necip Fazıl Kısakürek
2277272512	41.0188521	28.6524399	Merter Çeşme Otobüs Durağı
2277543802	41.0199448	28.6550902	Yeşilkent IETT Durağı
2277626276	41.0189324	28.6331855	Beylikdüzü (E5)
2277630044	41.0095463	28.6569140	Beylikdüzü
2361256053	41.0892170	29.0085350	Üç Yol Durağı
2361256318	41.0891264	29.0083000	Üç Yol Durağı
2362619907	41.0320749	29.0469841	Burhaniye Mahallesi;Burhaniye
2362635403	40.9989315	29.0565712	Uzunçayır
2362635406	40.9916243	29.0376743	Söğütlüçeşme (Metrobüs)
2362656430	41.0659057	29.0129535	Zincirlikuyu
2363259651	41.0488994	28.9464247	Halıcıoğlu
2363269366	41.0674207	28.9761597	Okmeydanı Hastane
2363269370	41.0673481	28.9810394	Çağlayan
2363270655	41.0668188	28.9919601	Mecidiyeköy
2363429141	41.0981500	28.9032260	Fevzi Çakmak
2365233715	40.9985300	28.7984305	Sefaköy
2365906949	41.0065916	28.6651555	Güzelyurt
2366170572	41.0333747	28.9294743	Edirnekapı
2366784496	41.0564649	28.9611710	Okmeydanı
2366810458	40.9936968	29.0472128	Fikirtepe
2366832557	40.9978965	28.8726787	İncirli
2366851849	40.9923907	28.8341472	Yenibosna
2381400728	41.0961310	28.9050090	75. Yıl Mahallesi
2387384485	41.0097767	29.2120685	Sarıgazi Metro
2388273906	41.0065520	29.2073350	Balkan Sokak
2392986708	41.0195308	29.0752408	Alvarlızade Camii
2392986709	41.0155600	29.0758650	Bulgurlu Metro
2392986710	41.0167040	29.0732080	Gaziler
2453479322	40.9910448	29.0254590	Kadıköy Çarşı
2453767332	41.1087700	29.0296102	İTÜ
2453767333	41.1081459	29.0231357	Maslak
2453767334	41.1080531	29.0199405	İTÜ Rektörlüğü
2470464485	41.0661525	29.0130744	Zincirlikuyu
2470464488	41.0656326	29.0143036	Köprülü Kavşak
2476082345	40.9870773	29.0341375	Barış Manço
2530813384	41.0208770	29.1217413	Çakmak Köprüsü
2530818259	41.0199507	29.1299028	Tepeüstü
2536131869	40.9713920	29.1178011	Güvenlik (yalnızca 19F bu durakta durur)
2536131878	40.9722050	29.1183244	Necmettin Erbakan Caddesi
2536131890	40.9720107	29.1185448	Necmettin Erbakan Caddesi
2601211317	40.9683428	29.1077055	Halil Atamavcı İlkokulu
2769159232	40.9128236	29.1925086	Soğanlık Metro
2793778182	40.9342285	29.3530137	Beyazevler
2793792877	40.9460362	29.3904032	Ballıca Sapağı
2847386605	41.1915548	29.0537832	Balcıbağı
2856474668	40.9842993	28.6576111	İhlasMarmara Evleri
2856474669	40.9838732	28.6573553	İhlasMarmara Evleri
2866510546	41.1933597	29.0505701	Emlak Sitesi
2868824848	41.0596429	28.7036209	
2885351517	41.1971047	29.0621492	Atatürk Ormanı
2885351518	41.1902107	29.0480378	Kandilci Sokak
2885394581	41.2221192	29.1038732	Garipçe Yolu
2888983742	40.8966338	29.2535995	Üçevler
2888983743	40.8965900	29.2520382	Üçevler
3073956670	40.9860337	29.0478797	Kuyubaşı
3180242881	41.0221109	28.9750308	Karaköy
3222225187	41.0854504	28.9794848	Haliç Üniversitesi
3335798220	41.0518593	28.9859642	Pangaltı
3341123131	41.0158781	28.9525244	Fatih İtfaiye - Şehit Taner Çebi
3341128479	41.0154880	28.9526310	Fatih İtfaiye - Şehit Taner Çebi
3499281485	41.0111311	28.9481411	Aksaray
3661543943	41.1112674	29.0002032	Ayazağa Caddesi
3661543944	41.1116834	28.9973610	Maslak Yolu
3661543945	41.1115122	28.9977410	Maslak Yolu
3668671096	41.0867380	28.9082520	Spor Tesisi
3687901855	41.1414201	29.0280950	Bahçeköy Öğrenci Yurdu
3687901857	41.1536150	29.0366376	Kefeliköy
3687901871	41.1653079	29.0539488	Kocataş (Sahil)
3687901872	41.1652525	29.0545869	Kocataş (Sahil)
3687901880	41.1770168	29.0509289	Maden Kocataş
3687901881	41.1863582	29.0471301	Acarlar
3687901882	41.1849696	29.0431477	Nalbantçeşme
3688055919	41.1878637	29.0397317	Nalbanttepe
3688055920	41.1896896	29.0378970	Zekeriyaköy Trafo
3688069331	41.1869882	29.0415802	Gürgensu Sitesi
3688111955	41.2063993	29.0241800	Köprü
3688111956	41.2080952	29.0231764	Migros
3688111957	41.2082633	29.0229075	Migros
3688117471	41.2293316	28.9967539	Beşevler
3688117476	41.2486900	28.9802765	Güzel Evler
3688181286	41.2205322	29.0327116	Uskumruköy Yolu
3688181287	41.2207330	29.0325394	Uskumruköy Yolu
3726047284	41.0990240	28.8997170	Şair Abay Lisesi
3743920188	41.0535353	28.9842730	Osmanbey
3748852011	41.0514786	28.9874357	Pangaltı
3802326846	41.0936577	29.0135177	Orbay
3802367605	41.0935692	29.0135735	Orbay
3802369474	41.0924263	29.0117298	Orhan İlter
3802369976	41.0918878	29.0112812	Orhan İlter
3815926628	41.0997458	28.9844892	Seyrantepe
3815928143	41.0987516	28.9857297	Ulubatlı Hasan Cami
3815930564	41.0967696	28.9863489	Atatürk İlkokulu
3815941911	41.0946893	28.9870824	Mescid-İ Nur Cami
3815941912	41.0956390	28.9890566	İtfaiye
3815947291	41.0980820	28.9909169	Seyrantepe Ortaokulu
3815947292	41.0993748	28.9927338	Polis Lojmanları
3815947293	41.0995039	28.9971707	Seyrantepe Merkez Cami
3815947294	41.0965613	28.9969911	Yeşilce Mahallesi
3815961730	41.0939986	28.9928074	Benzinlik
3815961731	41.0925285	28.9939334	Çimentepe
3815961733	41.0906960	28.9994862	Sultan Selim Caddesi
3815961734	41.0905630	29.0029893	Yaşar Doğu İlkokulu
3815961735	41.0897730	29.0057090	Sultan Selim Mahallesi
3815980715	41.0868696	29.0066175	Emniyetevler
3816089860	41.0829587	29.0024950	Çeliktepe Muhtarlığı
3816089861	41.0830531	29.0007085	Osman Faruk Verimer Okulu
3816089863	41.0814243	28.9976347	Genç Osman Caddesi
3816089864	41.0820852	28.9953603	Keçi Deresi
3816120181	41.0847922	28.9946651	İkizler
3816120182	41.0858618	28.9936146	Armağan Sokak
3816120187	41.0860856	28.9916593	Aygün Sokak
3816120188	41.0867493	28.9887308	Hilal Park
3816318577	41.0880245	28.9865026	Yahya Kemal Dereiçi
3816318578	41.0884150	28.9829269	İski
3816318579	41.0825731	28.9762463	Ayazma Yolu
3816318580	41.0790505	28.9736539	Kağıthane
3816318581	41.0778706	28.9709189	Kağıthane Park
3816318582	41.0726930	28.9669270	Kağıthane Belediyesi
3816338613	41.0194019	28.9278973	TOPKAPI CADDESİ
3816343626	41.0661853	28.9592667	Kağıthane Garajı
3816343632	41.0470791	28.9432342	FSM Vakıf Üniversitesi
3816343633	41.0484809	28.9435768	Halıcıoğlu 1
3816343635	41.0312400	28.9339530	Edirnekapı Tramvay
3816343637	41.0234568	28.9286489	Ulubatlı
3946487108	41.0929646	28.9779234	Başak Konutları
3946487109	41.0925177	28.9752768	Ekrem Cevahir İ.H.L.
4053797624	41.0759350	29.0143480	Levent
4061318675	40.9523491	29.0944056	Bostancı İskele
4068064209	40.9557650	29.0943711	Üstbostancı
4068064210	40.9571670	29.0873967	Çatalçeşme
4068064211	40.9599014	29.0817339	Suadiye
4068064212	40.9632150	29.0754629	Şaşkınbakkal
4068064213	40.9665123	29.0693368	Erenköy
4068064214	40.9718534	29.0592560	Göztepe
4068064215	40.9672741	29.0562884	Göztepe
4068064216	40.9642512	29.0644398	Caddebostan
4068064217	40.9564761	29.0781948	Suadiye
4068064218	40.9548168	29.0842020	Tan Sokak
4068064219	40.9539906	29.0894600	Çatalçeşme
4068084892	41.0333979	29.0249724	Paşa Limanı
4068084893	41.0391255	29.0337110	Abdullah Ağa
4068084894	41.0389232	29.0336279	Şehit Samet Uslu durağı
4169688145	41.0274900	29.0157009	Üsküdar
4169688146	41.0275640	29.0161490	Üsküdar
4169818140	41.0425435	29.0069254	Beşiktaş İskele;Beşiktaş Peronlar
4169865015	40.9913972	29.0228350	İskele
4318830189	41.0227426	28.6240135	Beylikdüzü Sondurak
4356704196	41.0373246	28.9876442	Taksim
4357242202	41.0250078	28.9769423	Kemeraltı
4479533689	41.0256548	29.0208166	Şehit Çetin Can
4543179541	40.9422016	29.1450637	Çamlık
4550632990	40.9057701	29.1606274	Başak Sokak
4553840691	41.0229442	29.0520092	Millet Bahçesi
4557019485	40.9751249	29.0988232	Kozyatağı Metro
4561209414	40.9603959	29.0937841	Şenesenevler
4573164440	41.0167403	29.0432527	Tophanelioğlu Caddesi
4573821482	40.9542979	29.1668790	Narcıty İş Merkezi
4574977243	41.0234427	29.0426104	Altunizade
4574984718	41.0244824	29.0363303	Bağlarbaşı Kültür Merkezi
4575164388	41.0267760	29.0336531	Kuruçeşme
4575166427	41.0279368	29.0299040	Fıstıkağacı
4575167388	41.0277865	29.0298279	Fıstıkağacı
4575871212	40.9708142	29.1397996	Fındıklı Mahallesi Durağı
4577189478	40.9611324	29.0790908	Mücahit Sokak
4578703995	40.9796859	29.0442965	Konak
4580489089	40.8897011	29.1797025	Şehit Kemal Tosun
4581926191	40.9850662	29.0515402	Marmara Üniversitesi Göztepe Yerleşkesi
4586889206	41.0012519	28.8917589	Zeytinburnu Çırpıcı
4596000091	40.8972990	29.1719642	Beyaz köşk
4596000092	40.9008181	29.1678329	Istasyon
4677743644	41.0533051	28.9587588	Cemal Kamacı
4703370489	40.9384325	29.2970349	Sultanbeyli Peronlar
4795425033	40.9868184	29.0883093	Yenisahra
4822498024	40.9814514	29.1449628	Uslu Caddesi
4822743225	40.8911903	29.2585809	Atatürk Caddesi
4842022259	40.8920586	29.2601810	Hukukçular Sitesi
4845155657	41.0112213	29.1193215	Sancaktepe Camii
4853282051	40.9665869	29.2689131	Sultanbeyli Merkez
4853282053	40.9687599	29.2611201	Çiftlik
4877506434	40.9647611	29.0726865	Kantarcı
4938154322	41.0393952	29.0687087	Yeni Şahin Sokak
4952640132	41.0489798	28.8965290	Kocatepe Metro
4972799723	40.9958547	29.0859363	Şehit Cahar Dudayev Caddesi
4972805521	40.9903165	29.1262244	Turgut Özal Bulvarı
4974306277	41.0664157	29.0130762	Zincirlikuyu
4978809607	40.9904663	29.1368716	Doğu Ataşehir
4978809608	40.9907481	29.1357102	Teb Ataşehir Anadolu Lisesi
4978809609	40.9916497	29.1317921	Ataşehir Siteler
4989196021	41.0579301	28.8915939	Meltem Sokak
4997449322	41.0429629	28.9038695	Bayrampaşa Devlet Hastanesi
5001137923	41.0049274	29.1342331	Tatlısu Mahallesi
5001149621	41.0051564	29.1342841	Tatlısu Mahallesi
5001361021	40.9930826	29.1226995	Ataşehir Plazalar
5080777821	41.1822355	28.7468060	Saliha Sokak
5101777021	40.9812378	29.0413440	Ihlamur
5101777022	40.9702369	29.0531746	Çiftehavuzlar
5108371522	41.0107566	28.9497727	Aksaray
5108794422	41.0139590	28.9450380	İskenderpaşa
5108803122	41.0207450	28.9352580	Bezmialem Vakıf Üniversitesi
5108803123	41.0240752	28.9304408	Ulubatlı
5108806121	41.0178037	28.9395165	İstanbul Emniyet Müdürlüğü
5108874522	41.0154760	28.9428570	Oğuzhan
5112233561	40.9088540	29.3150098	Sabiha Gökçen Havalimanı
5116183326	41.0265355	28.8878823	Spor Kompleksi
5133064924	41.1074949	29.0575212	Emirgan
5197319021	40.8786848	29.2431792	Pendik Emniyet Müdürlüğü
5236980621	41.0409543	28.7895830	Güneşpark Evleri
5239669821	41.0137308	29.0751995	Çeşme
5241132621	41.0460680	28.9868520	TRT İstanbul Radyosu
5247613228	41.0399825	29.1870607	Yeşiltepee Son Durak
5248897218	41.0398630	29.1797630	Küçük Koru Cami
5255830724	41.0403350	29.1759770	Çekmeköy
5263672512	40.9488740	29.1231399	Küçükyalı
5266212092	41.0373139	29.1747310	Köşk
5266212093	41.0344620	29.1749320	Köyiçi
5272473035	40.9580077	29.0961565	Bostancı
5280587296	40.9522025	29.0967073	Bostancı
5284636293	41.0598111	28.9128899	Cumhuriyet Meydanı
5284636319	41.0539780	28.9101740	Bereç
5285760906	41.1076576	28.8612492	1. Cebeci Caddesi
5285979523	40.9307471	29.2147079	Uğurmumcu
5286349760	41.0219110	29.0483118	Altunizade
5291454637	41.0379290	29.1750430	Köşk
5291970733	41.1043166	28.8612684	Sultançiftliği (Edirnekapı Yönü)
5295118530	41.1357653	28.8277226	Tepeüstü
5295118531	41.1356375	28.8276727	Tepeüstü
5295857896	41.1328051	28.8340775	Habipler
5296377530	40.9631531	29.0897335	Şemsettin Günaltay Caddesi
5300978604	40.9359665	29.2148199	Adnan Kahveci
5310003982	41.1170315	28.8505402	Mescid-i Selam (Arnavutköy Yönü)
5316960216	41.1136528	28.8508685	Malkoçoğlu
5319891210	40.9480460	29.1235480	Küçükyalı;Küçükyalı Metro
5481070223	41.0169470	28.9293989	Pazartekke
5482167824	41.0026432	28.9634961	Yenikapi Sahil
5485052972	41.0043205	28.9208213	Biruni Üniversitesi
5485956521	41.0048865	28.9534108	Yenikapı Marmaray (Etkinlik Alanı Yönü
5489351424	41.0192700	28.9648990	Eminönü Kantarcılar
5491544129	41.0801800	29.0119500	Fabrikalar
5491544224	41.0765590	29.0145460	Levent
5491563221	41.0606580	29.0112420	Balmumcu
5491563721	41.0857950	29.0076380	4. Levent;4.levent
5492978821	41.1065370	29.0138544	Maslak Kavşağı
5493411821	41.0267361	28.9804571	Tophane
5493980624	41.0267886	28.9798829	Tophane
5519222900	41.0273830	28.9387480	Şehit Yunus Emre Ezer
5558390021	40.9905296	29.1265983	Turgut Özal Bulvarı
5674301399	40.8986939	29.2141367	Şehit Ahmet Yalçın
5675541813	40.8987704	29.2099609	Hakimiyet Caddesi
5820895199	40.9841738	29.0590706	Mustafa Mazhar Bey Sokak
5820895200	40.9838929	29.0594480	Mustafa Mazhar Bey
5820895201	40.9856872	29.0594326	Dr. Erkin Caddesi
5820895202	40.9844887	29.0586383	Dr. Erkin Caddesi
5820895203	40.9836728	29.0587488	Mustafa Mazhar Bey
5887084945	40.8626880	29.3354820	Cem Sultan Caddesi
5887084946	40.8624450	29.3356550	Cem Sultan Caddesi
5896375398	40.8729499	29.3324135	Tepe Mahallesi
5896375399	40.8728350	29.3325950	Tepe Mahallesi
5896507138	40.8636880	29.3367280	Yahya Kemal Mesleki Ve Teknik Anadolu Lisesi
5896507139	40.8638920	29.3367490	Yahya Kemal Mesleki Ve Teknik Anadolu Lisesi
5899002031	40.8642350	29.3401440	Necip Fazıl Kısakürek Camii
5899500450	40.8646090	29.3425450	Gökberk Sokak
5899500451	40.8647660	29.3424450	Gökberk Sokak
5899500452	40.8644200	29.3402230	Necip Fazıl Kısakürek Camii
5899500457	40.8675000	29.3261562	Aydınlı Park
5899500458	40.8678800	29.3253650	Aydınlı Park
5899500459	40.8688730	29.3242146	Leylak Sokak
5899500460	40.8687240	29.3242980	Leylak Sokak
5899500461	40.8694820	29.3220970	Telefon Santralı;Telefon Santrali
5899500462	40.8693707	29.3220074	Telefon Santralı;Telefon Santrali
5899527371	40.8663245	29.2845480	Gülizar Zeki Obdan Anadolu Lisesi
5899527372	40.8662097	29.2848398	Gülizar Zeki Obdan Anadolu Lisesi
5899527373	40.8682375	29.2824710	Kemikli Dere
5899527374	40.8680754	29.2824297	Kemikli Dere
5899547432	40.8887000	29.2382150	Pendik Köprüsü
5899559848	40.8676126	29.2711914	Tersane Köprüsü-1
5899651761	40.8702720	29.3344820	Erdost Sokağı;Erdost Sokak
5899651762	40.8702150	29.3343450	Erdost Sokağı;Erdost Sokak
5899651765	40.8706150	29.3305260	Aydınlı Muhtarlık;Aydınlı Muhtarlığı
5899651766	40.8706460	29.3302440	Aydınlı Muhtarlık;Aydınlı Muhtarlığı
5899651784	40.8475776	29.2938104	Tersaneler
5899653328	40.8178229	29.3019874	Bahçeler
5899653329	40.8177823	29.3017042	Bahçeler
5899653332	40.8163528	29.2944274	İtü Denizcilik Fakültesi
5899653333	40.8165824	29.2950116	İtü Denizcilik Fakültesi
5899653337	40.8180244	29.2834191	Cengaver Sokak
5905685771	40.8707020	29.3262320	Nişancı Mehmet Paşa Camii
5905685772	40.8706300	29.3261580	Nişancı Mehmet Paşa Camii
5905702200	40.8686580	29.3269130	Bahar Caddesi
5905702201	40.8684880	29.3267670	Bahar Caddesi
5936628926	40.8977960	29.2244660	Keresteciler Durağı;Keresteciler
5936628929	40.9103000	29.2003530	Ağız ve Diş Sağ. Mrk.;Ağız Ve Diş Sağlığı Merkezi
5936628931	40.9139174	29.1886827	İBB Ek Hizmet Binası
5936628932	40.9159749	29.1821172	Anadolu Adalet Sarayı
5936628934	40.9183675	29.1643738	Tugay Yolu Caddesi
5936628936	40.9156607	29.1700739	Dr. Lütfi Kırdar Şehir Hastanesi
5936628937	40.9159581	29.1704559	Dr. Lütfi Kırdar Şehir Hastanesi
5936628938	40.9173287	29.1759058	Dr. Lütfi Kırdar Şehir Hastanesi
5936628939	40.9152894	29.1821713	Anadolu Adalet Sarayı
5936628940	40.9132933	29.1886170	İBB Ek Hizmet Binası
5936628941	40.9108330	29.1967850	Kartal Sanayi
5936628947	40.8766976	29.2627359	Kaynarca
5942847654	41.0194528	28.9478564	Fatih
5942878708	41.0229374	28.9441542	Yavuz Selim
5942878711	41.0252060	28.9404920	Karagümrük-Şht A.Acarkan
5953232985	41.0135343	28.9448247	İskenderpaşa
6012067946	40.9833186	29.1183603	Kılıç Reis Sokak
6052905885	40.8783465	29.2275916	Pendik Devlet Hastanesi
6059123085	41.2348688	29.1083513	Kale Caddesi
6116332601	40.8610006	29.2817764	Güzelyalı
6128507507	40.8556504	29.2852970	Ticaret Odası Meslek
6128507508	40.8555059	29.2853970	Ticaret Odası Meslek
6128507517	40.8564040	29.2797395	Güzelyalı İstasyonu
6128507518	40.8562283	29.2798709	Güzelyalı İstasyonu
6131035208	40.8597110	29.2811530	Güzelyalı Köprüsü
6131325094	40.8377050	29.3602720	Narin Sokak
6150305330	40.8486401	29.2964547	İçmeler Köprüsü
6150305331	40.8475575	29.2949909	Tersaneler
6150305332	40.8450602	29.2978507	Şifalı Sular
6150305333	40.8430420	29.3005033	Tuzla Belediyesi
6150305334	40.8416403	29.3040314	Gülistan
6150305335	40.8408099	29.3063802	Evliya Çelebi Camii
6150305336	40.8408799	29.3067811	Evliya Çelebi Camii
6150305359	40.8417768	29.3041227	Gülistan
6150305360	40.8442452	29.2993425	Tuzla Belediyesi
6150305361	40.8444627	29.2956098	Şifalı Sular
6150305362	40.8459427	29.2946197	Tersaneler
6152410498	40.8594518	29.2802214	Yunus Emre
6152410503	40.8721017	29.2665914	Kaynarca Alt Geçit
6152410504	40.8723959	29.2644300	Şehit Ozan Özen
6152410505	40.8724868	29.2645253	Şehit Ozan Özen
6152410516	40.8761363	29.2486802	Kaynarca Parkı
6152410518	40.8816318	29.2391267	Mostar Kavşağı
6152410519	40.8815176	29.2388523	Mostar Kavşağı
6152410520	40.8823410	29.2360636	Gonca Sokak
6152410521	40.8823129	29.2355313	Gonca Sokak
6152410522	40.8810053	29.2319097	Pendik YHT İstasyonu
6152410523	40.8808096	29.2277733	Sancak Köprüsü
6152410524	40.8806282	29.2272781	Sancak Köprüsü
6152410525	40.8774695	29.2275941	Pendik Devlet Hastanesi
6152437888	40.8807412	29.2306273	Pendik YHT İstasyonu
6152437890	40.8789018	29.2218139	Pendik Anadolu Lisesi
6152437892	40.8802367	29.2162208	Veteriner Araştırma
6152437893	40.8800740	29.2161430	Veteriner Araştırma
6152437894	40.8834423	29.2084198	Yunus
6152437895	40.8832798	29.2083820	Yunus
6152437896	40.8854871	29.1994175	Hava Evleri
6152437897	40.8853427	29.1994582	Hava Evleri
6152437898	40.8870090	29.1952751	Bülent Ecevit Kültür Merkezi
6152437899	40.8869261	29.1950478	Bülent Ecevit Kültür Merkezi
6152437901	40.8866606	29.1927937	Kartal
6152494661	40.8881346	29.1895992	Çarşı
6152494662	40.8785297	29.2224402	Pendik Anadolu Lisesi
6152494663	40.8763935	29.2252161	Palmiye
6152494664	40.8782971	29.2432347	Pendik Emniyet Müdürlüğü
6152494667	40.8721090	29.2664690	Kaynarca Alt Geçit
6152494669	40.8658890	29.2730870	Tersane Köprüsü-2
6152494670	40.8608080	29.2827490	Güzelyalı
6157155858	40.8497120	29.2982160	İçmeler Köprüsü
6157156213	40.8528076	29.2945424	Aydıntepe İstasyon
6157227795	40.8551387	29.2922425	Esenyalı Sapağı
6157227796	40.8567900	29.2897800	Yanyol Caddesi
6157227798	40.8661890	29.2735530	Tersane Köprüsü-2
6157227799	40.8678921	29.2716956	Tersane Köprüsü-1
6157227814	40.8546500	29.2918840	Esenyalı Sapağı
6157227815	40.8526507	29.2941490	Aydıntepe İstasyon
6157227816	40.8494090	29.2977290	İçmeler Köprüsü
6157277072	40.8310310	29.3613330	Emiroğlu Caddesi
6157277073	40.8309400	29.3614770	Emiroğlu Caddesi
6157277077	40.8392615	29.3176424	Fabrikalar
6157277078	40.8387503	29.3174726	Fabrikalar
6157344743	40.8598870	29.2819370	Güzelyalı Köprüsü
6157344749	40.9394900	29.1347060	Nezahat Aslan Ekşioğlu İlkokulu
6157384262	40.9592426	29.1116532	Altıntepe
6157384263	40.9630580	29.1074746	Bostancı Köprüsü
6157384264	40.9752072	29.0994862	Kozyatağı Metro
6157384265	41.0908550	29.0059890	Sultan Selim Mahallesi
6157475244	41.0958008	29.0060726	Seyrantepe Yolu
6157475245	41.1016224	28.9878615	Türk Telekom Stadyum
6157475246	41.0760119	28.9580341	Nurtepe Viyadük
6157475247	41.0522390	28.9536860	Çıksalın
6157475254	41.0018351	28.8876234	Zeytinburnu Çırpıcı
6157475257	41.0219349	28.9258829	Topkapı Alt Geçit
6157475258	41.0327695	28.9328942	Şehitlik
6157475259	41.0470950	28.9456870	Halıcıoğlu 4
6157475261	41.0765945	28.9587783	Nurtepe Viyadük
6159631936	40.9704588	29.1007999	Fatih Sultan Mehmet Eğitim ve Araştırma Hastanesi
6159631937	40.9713736	29.1017127	Fatih Sultan Mehmet Eğitim ve Araştırma Hastanesi
6159631939	40.9583058	29.1117302	Altıntepe
6159631941	40.9394790	29.1339230	Nezahat Aslan Ekşioğlu İlkokulu
6159631946	40.9198979	29.1671762	Esenkent Metro
6159631947	40.9183734	29.1725269	Cevizli Köprüsü
6164221172	40.8443300	29.3021000	Tuzla Devlet Hastanesi
6164419448	40.8752541	29.2354504	Pendik İDO İskelesi
6164419451	40.8799601	29.2605211	Kaynarca Yanyol
6166937554	41.0030723	29.0850456	Ziya Paşa Caddesi
6172027494	41.0059195	29.0839249	esatpaşa imam hatip lisesi
6172085164	41.0031879	29.0810487	Prof.Ali Nihat Tarlan
6172085242	41.0015848	29.0789852	Şehit Akın Sertçelik
6174635014	40.9066627	29.2084054	Kartal Metro
6176997296	40.9899602	29.0298503	Altıyol
6177044431	40.9865504	29.0387935	Şükrü Saraçoğlu Stadı
6177044432	40.9868619	29.0383590	Şükrü Saracoğlu Stadı
6177044433	40.9842007	29.0390996	Kızıltoprak
6177044434	40.9828162	29.0406700	Kızıltoprak
6177044435	40.9787880	29.0414514	Yat Limanı
6177044436	40.9748881	29.0433841	Kalamış
6177044438	40.9722803	29.0508685	18 Mart Sokak
6177044439	40.9688748	29.0540972	50.Yıl Tahran Anadolu Lisesi
6177044440	40.9658337	29.0596850	Gelengül Sokak
6177044441	40.9621196	29.0698781	Kantarcı
6177044442	40.9582400	29.0731543	Şaşkınbakkal
6177044443	40.9484414	29.1001047	Altıntepe
6177044444	40.9487422	29.1005785	Altıntepe
6177044445	40.9447115	29.1046101	Küçükyalı Sahil
6177044446	40.9450428	29.1044235	Küçükyalı Sahil
6177087372	40.9180208	29.1297882	İstasyon Yolu
6177088099	40.8867513	29.1866312	Kartal Sahil
6177088100	40.8875204	29.1871299	Kartal Sahil
6177088102	40.8847701	29.1975873	Bülent Ecevit Kültür Merkezi
6177088104	40.8837462	29.2062877	Kumcular
6177088106	40.8829240	29.2084895	Yunus
6177088108	40.8801506	29.2141549	Veteriner Araştırma
6177120295	40.9554216	29.0911481	Taşlıçeşme
6177120296	40.9582833	29.0851308	Tan Sokak
6177120297	40.9685230	29.0654530	Caddebostan
6177120298	40.9701073	29.0626111	Yeniyol
6177120299	40.9741595	29.0551189	Çiftehavuzlar
6177120300	40.9762429	29.0501354	Selamiçeşme
6177120301	40.9782707	29.0466153	Feneryolu
6177120303	40.9922613	29.0338052	Söğutlüçeşme
6177120304	40.9907367	29.0293608	Altıyol
6177120305	40.9912048	29.0258535	Kadıköy Çarşı
6177209157	41.0076432	29.0125305	Harem
6177209158	41.0059069	29.0211915	Haydarpaşa Numune Hastanesi
6177209159	41.0056940	29.0213630	Haydarpaşa Numune Hastanesi
6177209160	41.0057067	29.0244386	İsfalt
6177209161	41.0056759	29.0267382	İsfalt
6177209163	41.0023876	29.0418963	Acıbadem Köprüsü
6177209166	40.9948888	29.0661801	İstanbul Medeniyet Üniversitesi
6177209168	40.9934302	29.0717411	Göztepe Köprüsü
6177209169	40.9927463	29.0718345	Göztepe Köprüsü
6177209170	40.9902814	29.0786065	Hastane
6177209171	40.9909111	29.0782088	Hastane
6177209172	40.9860346	29.0884130	Yenisahra
6177209173	40.9805083	29.0952502	Yüzbeşevler
6177273192	40.8789843	29.2614918	Hastane
6177273193	40.8769069	29.2633112	Kaynarca
6177273194	40.8769595	29.2629822	Kaynarca
6177273195	40.8749121	29.2650227	İsmek
6177273196	40.8747378	29.2648265	İsmek
6177273197	40.8721711	29.2672726	Alt Geçit
6177273198	40.8720590	29.2671244	Alt Geçit
6177273199	40.8704435	29.2690589	Yemek Sitesi
6177273200	40.8704529	29.2687508	Yemek Sitesi
6177772667	40.9127028	29.3133975	Sabiha Gökçen Nizamiye
6177772668	40.9126904	29.3130472	Sabiha Gökçen Nizamiye
6177899999	40.9187545	29.3125072	Teknopark İstanbul
6177900000	40.9187980	29.3117180	Teknopark İstanbul
6177900001	40.9241380	29.3130800	Teknopark Bulvarı
6177900002	40.9235995	29.3126974	Teknopark Bulvarı
6177900003	40.9266032	29.3087539	Kurtköy Semt Polikliniği
6177900014	40.9306050	29.3044984	Mustafa Akyol Sokak
6177900015	40.9309582	29.3047342	Mustafa Akyol Sokak
6178096756	40.8590310	29.2804989	Yunus Emre
6179009823	40.9148194	29.2930500	Lise Caddesi
6180211298	40.9013757	29.2066310	Kartal Poliklinikler
6180241826	40.8782641	29.2371593	Mostar Köprüsü
6180241827	40.8782450	29.2373776	Mostar Köprüsü
6180460993	40.8233907	29.3528573	Şifa Mahallesi
6180460994	40.8227938	29.3532618	Şifa Mahallesi
6189375084	40.9803463	29.0962765	Yüzbeşevler
6190252134	41.0207394	29.0350140	Marmara Üniversitesi İlahiyat Fakültesi
6190252155	41.0215585	29.0411814	Şehit Erol Olçok
6191487942	40.9945076	29.0243150	Kadıköy
6191598328	41.0018557	29.0226773	Haydarpaşa Mesleki ve Teknik Anadolu Lisesi
6194207207	40.8199654	29.2877666	Ötüken Evleri
6194207208	40.8202246	29.2877033	Ötüken Evleri
6195430100	41.0263556	29.0341192	Kuruçeşme
6195430101	41.0270892	29.0248467	Setbaşı
6215970428	41.0083540	29.0501640	Çamlıca Kız Lisesi
6215970429	41.0084985	29.0500182	Çamlıca Kız Lisesi
6215970436	41.0186916	29.0604597	Küçükçamlıca Caddesi
6215970437	41.0187323	29.0603534	Küçükçamlıca Caddesi
6215970438	41.0208817	29.0645018	Vefakar Sokak
6215970439	41.0209343	29.0643811	Vefakar Sokak
6215970442	41.0220396	29.0667342	Turistik Çamlıca Tesisler
6216648984	41.0110870	29.0120920	Harem
6241319679	41.0656480	28.9854630	Şişli Mesleki ve Teknik Anadolu Lisesi
6248129794	40.9834260	29.1159141	Şerifali Yolu Caddesi
6248129795	40.9835158	29.1162126	Şerifali Yolu Caddesi
6248129796	40.9831648	29.1183066	Kılıç Reis Sokak
6248129812	40.9866484	29.1228692	Çiçek Kent
6248456241	40.9668668	29.1066225	Bostancı Sanayii
6248456242	40.9692938	29.1110610	İçerenköy Mezarlığı
6248456248	40.9793839	29.1129363	Küçükbakkalköy Çarşı
6248456250	40.9812663	29.1138461	Ataşehir Toplum Sağlığı Merkezi
6248456251	40.9818006	29.1128248	Ataşehir Toplum Sağlığı Merkezi
6248456252	40.9830594	29.1146637	Ataşehir İlçe Milli Eğitim Müdürlüğü
6248456253	40.9831319	29.1149963	Ataşehir İlçe Millî Eğitim Müdürlüğü
6255332031	40.9927032	29.1179058	Ataşehir Atatürk Mahallesi
6255332032	40.9924393	29.1180809	Ataşehir Atatürk Mahallesi
6255332033	40.9933206	29.1114996	Mimar Sinan Camii
6255332034	40.9944372	29.1089923	Cumhuriyet Parkı
6255332035	40.9942356	29.1087262	Cumhuriyet Parkı
6255332036	40.9951508	29.1068677	Ataşehir Emniyet
6255332038	40.9961229	29.1051877	Menekşe Sokak
6255332039	40.9962431	29.1052115	Menekşe Sokak
6255332047	40.9978284	29.1022246	Ataşehir Belediyesi
6255332048	40.9978810	29.1020561	Ataşehir Belediyesi
6262189951	40.9979594	29.0574968	Uzunçayır Metrobüs
6271129185	41.0240403	28.7909677	Meslek Lisesi
6271129685	41.0271469	28.7906657	Oyak Sitesi
6271153388	41.0685654	28.8136007	İstoç Yolu
6286085686	40.9924925	28.8512139	Ataköy Geçit
6310676213	40.9200290	29.2856950	Ugetam
6310676214	40.9203690	29.2860040	Ugetam
6310676218	40.9228730	29.2883310	Necip Fazıl Kısakürek Ortaokulu
6310676219	40.9226632	29.2881219	Necip Fazıl Kısakürek Ortaokulu
6329803865	41.0940018	28.9929145	Benzinlik
6330600138	40.9988867	29.0796307	İhsan Kurşunoğlu İlkokulu
6341277312	41.0221772	29.0409620	Şehit Erol Olçok
6342849867	41.0925945	28.9940359	Çimentepe
6342854753	41.0910008	28.9967167	Sultan Selim Mahallesi Merkez Cami
6342858718	41.0908430	28.9996924	Sultan Selim Caddesi
6342862135	41.0906874	29.0020818	Yaşar Doğu İlkokulu
6374154912	41.0862491	28.8700646	Hamza Yerlikaya
6388694087	41.0801420	29.0114670	Fabrikalar
6394095588	41.0256712	29.0114246	Şemsipaşa
6477467932	40.9177556	29.1596879	Kır Sokak
6478604372	40.9155360	29.2850150	Safa Caddesi
6495058923	40.9839374	29.1210590	Prof.Faik Somer Spor Lisesi
6495058945	40.9838071	29.1209129	Prof.Faik Somer Spor Lisesi
6503456774	40.9300990	29.3199766	Pendik Kurtköy Spor Kompleksi
6503456775	40.9299374	29.3200813	Pendik Kurtköy Spor Kompleksi
6503977658	41.0254105	29.0171555	Horhor
6503977659	41.0257221	29.0205054	Şehit Çetin Can
6503977660	41.0244524	29.0361013	Bağlarbaşı Kültür Merkezi
6503977661	41.0226088	29.0359681	Bağlarbaşı
6503977664	41.0240563	29.0863661	Santral
6503977665	41.0238493	29.0887579	Sütçü İmam Caddesi
6503977666	41.0236670	29.0932552	Ümraniye Çarşı
6503977667	41.0242676	29.0978258	Ümraniye
6503977668	41.0242106	29.0998367	Ümraniye Son Durak
6503977669	41.0233103	29.1038252	75. Yıl Cumhuriyet Ticari Meslek Lisesi
6503977670	41.0233437	29.1071162	Atakent
6503977671	41.0224688	29.1119641	Mithatpaşa Caddesi
6503977672	41.0209416	29.1182919	Ümraniye İSKİ - Şehit Emre Büyükyıldırım
6503977673	41.0206136	29.1216277	Çakmak Köprüsü
6503977674	41.0230720	29.1293410	Şile Yolu
6503977675	41.0351720	29.1580650	Huzur Mahallesi
6503977676	41.0295420	29.1712790	Serindere
6503977677	41.0234060	29.1775210	Plazalar
6503977678	41.0135150	29.1961170	Çamlık
6503977679	41.0162424	29.2061502	Sancaktepe Kavşağı
6503977680	41.0218710	29.2161160	Halit Bin Velit Cami
6503977681	41.0233348	29.2222169	Nar Sokak
6503977682	41.0265553	29.2300474	Vatan Caddesi
6504018786	41.0357502	29.2719214	Paşaköy Sapağı
6504018787	41.0269077	29.2362194	Yenidoğan Üstgeçit
6504018788	41.0269970	29.2458780	Eyyubi Camii;Selahattin Eyyubi Camii
6504304640	41.0360321	29.2717470	Paşaköy Sapağı
6504304641	41.0272805	29.2405418	Yenidoğan Üstgeçit
6504304642	41.0269680	29.2298700	Vatan Caddesi
6504304643	41.0239460	29.2223850	Nar Sokak
6504304644	41.0164946	29.2057448	Sancaktepe Kavşağı
6504304646	41.0300520	29.1715370	Serindere
6504304647	41.0317970	29.1674790	Çekmeköy Belediye Sapağı
6504304648	41.0356333	29.1605444	Huzur Mahallesi
6504304651	41.0257666	29.0970212	Ümraniye Çarşı Metro
6504304652	41.0280316	29.0936213	Bağ Sokak
6504304653	41.0274923	29.0903561	Mevlana Parkı
6504324978	41.0235490	29.0806970	Namazgah
6504325285	41.0237373	29.0513836	Millet Bahçesi
6504325286	41.0232499	29.0443052	Altunizade Metrobüs
6504325287	41.0278311	29.0260179	Setbaşı
6504325288	41.0262014	29.0140369	Üsküdar Marmaray
6512964228	40.9342998	29.3519160	Beyazevler
6518159862	40.9264130	29.2874590	Çamlık Sitesi
6518232719	40.9336530	29.2841990	Lale Sitesi
6518232720	40.9335660	29.2845780	Lale Sitesi
6539131376	40.9559120	29.0957779	Hayrullah Kefoğlu Anadolu Lisesi
6539131377	40.9606661	29.0937425	Şenesenevler
6539131378	40.9634966	29.0896094	Şemsettin Günaltay Caddesi
6539131379	40.9663612	29.0872097	Ayşekadın
6539131380	40.9697250	29.0847650	Kazasker
6539131381	40.9731247	29.0827539	19 Mayıs Mahallesi Şehit Orhun Göytan
6539131382	40.9760435	29.0799549	Tüccarbaşı
6539131383	40.9803833	29.0753290	Sahrayıcedit Camii
6539131384	40.9806478	29.0737176	Kadıköy İlçe Emniyet Müdürlüğü
6539179185	40.9815920	29.0693646	Göztepe
6539179186	40.9830874	29.0639755	Çemenzar
6539179187	40.9860196	29.0484369	Kuyubaşı
6539179189	41.0247795	29.0081944	Şemsipaşa Askeri Sosyal Tesisleri
6539179190	41.0197695	29.0080656	Kız Kulesi
6539179191	41.0156727	29.0106554	İhsaniye İskele Sokak
6539179192	41.0134237	29.0112600	Üsküdar Sahil Yolu
6539179193	41.0098586	29.0117546	Harem
6539200580	41.0185861	29.0089612	Kız Kulesi
6539200582	41.0255840	29.0106680	Şemsipaşa
6540224122	40.9926159	29.0365820	Kadıköy Belediyesi
6540224123	40.9847941	29.0517820	Marmara Üniversitesi Göztepe Yerleşkesi
6540224124	40.9830004	29.0635225	Çemenzar
6540224125	40.9812393	29.0698140	Göztepe
6540224126	40.9800964	29.0760272	Sahrayıcedit Camii
6540224127	40.9784819	29.0778480	Ethemefendi
6540224128	40.9755748	29.0797946	Tüccarbaşı
6540224129	40.9730791	29.0824277	19 Mayıs Mahallesi-Şehit Orhun Göytan
6540224130	40.9694699	29.0845903	Kazasker
6540224131	40.9659494	29.0870499	Ayşekadın
6540224132	40.9576370	29.0948582	Dörtyol
6544352594	41.1784071	28.7502515	Arnavutköy Peronlar
6547046301	40.9880055	28.8722007	Klinik
6547092595	40.9855914	28.8724140	Yeşil Kıbrıs
6548520818	41.0002522	29.0299355	Ayrılıkçeşmesi Marmaray
6548565308	41.0242811	29.0522881	Millet Bahçesi
6548565309	41.0274597	29.0491248	Tunuslu Mahmut Paşa
6548565310	41.0293117	29.0476935	Şifa Kuyusu
6548565317	41.0290822	29.0574310	Mehmetçik Sokağı
6548565318	41.0287517	29.0578564	Sağlık Ocağı
6548565332	41.0279835	29.0580358	Sağlık Ocağı
6548565333	41.0292038	29.0574654	Mehmetçik Sokağı
6548568443	41.0179633	29.0316725	Pazarbaşı
6548568444	41.0156518	29.0288656	Üsküdar Askerlik Şubesi
6555600116	41.0139574	29.0603370	Küçük Çamlıca
6555600117	41.0118791	29.0625839	Barış Manço Parkı
6555600118	41.0091396	29.0634091	Zahit Kotku
6576115485	40.9803923	29.1014079	Ataşehir Hal
6665457262	41.0546281	28.9869974	Osmanbey
6673203628	41.0398701	28.9894785	Gümüşsuyu Peron
6680883185	40.9802023	28.7063132	Ambarlı Siteler
6696447464	40.9719712	29.0738121	Karakol
6696447465	40.9718122	29.0736331	Karakol
6760608685	41.0840123	29.0068717	4.Levent Metro
6786321760	40.9741088	29.0470042	Cemil Cemil Topuzlu Caddesi
6811617582	40.8984847	29.1691009	Atalar Alt Geçit
6811617583	40.8984174	29.1693317	Atalar Alt Geçit
6863444142	40.9325166	29.1700483	Uçan Sokak
6863444143	40.9323280	29.1700915	Uçan Sokak
6865721996	40.9852700	29.2600490	İstasyon Sokak
6865721997	40.9853280	29.2602790	İstasyon Sokak
6870654053	41.0153472	29.1285791	Sevgi Parkı
6870654054	41.0154617	29.1287909	Sevgi Parkı
6872752641	40.9575640	29.2141590	Yunus Emre Camii
6872752642	40.9576610	29.2143960	Yunus Emre Camii
6872752714	40.9545840	29.2146630	Ortadağ
6872752715	40.9546230	29.2144100	Ortadağ
6877611179	41.1020613	28.7875842	Arterium 5.Kısım
6877611180	41.1021915	28.7876496	Arterium 5.Kısım
6881024489	40.9684472	29.1410074	Başıbüyük Yolu
6881024490	40.9696999	29.1440785	Yasemin Sokak
6881024491	40.9706742	29.1455529	Fırat Sokak
6881024492	40.9722863	29.1448343	Evren Caddesi
6881107915	40.9681738	29.1221528	Fındıklı Mahallesi Muhtarlığı
6881107916	40.9701484	29.1244750	Menekşe Sokak
6881107917	40.9711711	29.1266489	Yalın Sokak
6881107918	40.9713914	29.1290103	İETT Durakları
6881107920	40.9714111	29.1353948	Ataman Caddesi
6888172479	41.0631371	28.8289905	Bölge İdare Mahkemesi
6895279699	41.0792028	28.7932638	Süleyman Demirel Bulvarı
6895279700	41.0793243	28.7936634	Süleyman Demirel Bulvarı
6895317076	41.0776791	28.7985012	Triko Center
6897644785	41.0777496	29.0141029	Levent
6934034161	40.9875247	29.1009351	Dr. Nureddin Erk Perihan Erk Endüstri Meslek Lisesi
6934034162	40.9879761	29.1013511	Dr. Nureddin Erk Perihan Erk Endüstri Meslek Lisesi
6936900080	41.1085500	28.7538135	Akik Sitesi
6936900081	41.1084587	28.7539130	Akik Sitesi
6938851243	41.0988008	28.7671304	Cadde Dükkanları
6938851244	41.0983070	28.7666630	Cadde Dükkanları
6938851245	41.0976930	28.7699540	Bulvar İstanbul
6938851246	41.0975620	28.7702190	Bulvar İstanbul
6939087364	41.1052469	28.7600914	Zümrüt Sitesi
6939087365	41.1054396	28.7602174	Zümrüt Sitesi
6945256479	41.1084103	28.8009714	Metrokent
6951443766	41.1739851	28.4536486	Gökçeali İstasyonu
6951443767	41.1734416	28.4531955	Gökçeali İstasyonu
6951443768	41.1621228	28.4546082	Su Deposu
6951443769	41.1621429	28.4544043	Su Deposu
6951443770	41.1545048	28.4530324	A.Nihat Ana.Tek.Lise
6951443771	41.1542024	28.4532939	A.Nihat Ana.Tek.Lise
6951443772	41.1485211	28.4533234	Acet Evler
6951443773	41.1485878	28.4531458	Acet Evler
6951443774	41.1468008	28.4523181	Çatalca Garajı
6951443775	41.1378213	28.4644884	Ali Çavuş
6951443776	41.1377599	28.4643055	Ali Çavuş
6951443777	41.1412521	28.4632561	Ferhatpaşa İlköğretim Okulu
6951443778	41.1440149	28.4630780	Spor Tesisleri
6951443779	41.1436762	28.4605173	Çatalca Kaymakamlığı
6951763429	41.1343398	28.4669688	Çatalca Devlet Hastanesi
6951763430	41.1339639	28.4666693	Çatalca Devlet Hastanesi
6958138762	40.9855356	29.1796520	Ferhatpaşa Mahallesi Muhtarlığı
6966299294	41.0131793	28.9575445	Şehzadebaşı
6966341731	41.0622538	28.9874752	Şişli
6966342541	41.0670272	28.9854549	Şişli Endüstri Meslek Lisesi
6966352193	41.0686064	28.9829208	İstanbul Adalet Sarayı
6973452543	41.1122820	28.8027150	Salacak Sitesi
6973452544	41.1124250	28.8030990	Salacak Sitesi
6973806372	41.0957355	28.8089565	Ertuğrul Gazi Cad.
6973806373	41.0958182	28.8087857	Ertuğrul Gazi Cad.
6976827313	41.1028547	28.7933229	Göçmen Konutları
6976827314	41.1029000	28.7936890	Göçmen Konutları
6976968501	41.1057389	28.7941900	Başakşehir 1.Etap
6976968502	41.1056720	28.7945370	Başakşehir 1.Etap;Başakşehir 1.etap
6989052703	41.1061255	28.7476650	Kayaşehir
6989052717	41.1056320	28.7380330	Ongün Sokak
6989052718	41.1056990	28.7383110	Ongün Sokak
7004611986	41.0664305	28.9919648	Mecidiyeköy Metrobüs
7017425141	41.0113237	29.1194306	Sancaktepe Camii
7037774483	41.0641631	28.6840495	Kızlı Havuz
7037796045	41.0774510	28.6907403	Kiptaş Giriş
7037800252	41.0634836	28.7420192	
7037802695	41.0716661	28.6888283	Gölet
7037802961	41.0792903	28.6921425	Vaditepe 4.Bölge
7037803119	41.0766593	28.6966015	Vaditepe 2.Bölge
7071637800	41.0976747	28.8753462	50. Yıl Mahallesi
7071663696	40.9909858	29.1562297	Acarlar Sitesi
7071698001	40.9711048	29.2834927	Atatürk İÖOKL
7071744833	40.9479989	29.2995573	Akşemsettin
7071832433	41.0420717	29.2685200	Nişantepe Sondurak
7074170385	41.1596491	28.9129853	Kemerburgaz
7081870789	40.8895550	29.2060645	Yunus Garajı
7085517965	40.9824131	29.1655957	Üsküdar Caddesi
7085517966	40.9824661	29.1653343	Üsküdar Caddesi
7085528782	40.9848349	28.7231013	İ.Ü Avcılar Kampüsü
7085528783	40.9852982	28.7223395	Avcılar Camii
7085540494	40.9838364	28.7009868	Cihangir Mahallesi
7086183637	41.0204298	28.9245841	Topkapı
7086237118	41.0658640	28.9582630	Kağıthane Garajı
7086237120	41.0667320	28.9592440	Kağıthane Garajı
7086246591	41.0649255	28.7806211	A Kapısı
7100740059	41.0116330	29.1000380	Prof. Dr. Nabi Avcı Anadolu Lisesi
7100740060	41.0118220	29.1001830	Prof. Dr. Nabi Avcı Anadolu Lisesi
7104307119	41.0431710	29.0078330	Beşiktaş Meydan
7104358628	41.0145118	28.6258306	Beylikdüzü Devlet Hastanesi
7112399779	41.0339583	28.9745464	Tepebaşı
7112399780	41.0366163	28.9806984	Tarlabaşı
7112413412	41.0451061	28.9863435	TRT İstanbul Radyosu
7112413413	41.0474145	28.9870505	Harbiye Askeri Müze
7112413415	41.0576750	28.9868316	Şişli Hamidiye Etfal
7112413451	41.0663336	28.9902508	Mecidiyeköy Mezarlık
7112909724	41.0242585	29.1084054	Yamanevler Metro
7112909725	41.0235460	29.1114718	İşkur Ümraniye
7112909727	41.0220904	29.1164930	Ümraniye İSKİ - Şehit Emre Büyükyıldırım
7113685592	41.0157605	29.0949146	Esenevler Muhtarlık
7113685593	41.0160530	29.0964010	Ümraniye Anadolu Lisesi
7113685594	41.0160130	29.0961830	Ümraniye Anadolu Lisesi
7113686934	41.0157000	29.0975550	Talatpaşa Caddesi
7113686935	41.0155910	29.0975140	Talatpaşa Caddesi
7113686936	41.0154954	29.1004821	Mehmet Akif Ersoy Kültür Merkezi
7113686937	41.0152590	29.1006210	Mehmet Akif Ersoy Kültür Merkezi
7113686938	41.0140820	29.1004970	Şehit Lokman Oktay
7113686939	41.0141410	29.1003620	Şehit Lokman Oktay
7113686944	41.0117842	29.0906771	Devran Sokak
7113686946	41.0146701	29.0906677	Atmaca Sokak
7113707623	41.0159534	29.0937598	Esenevler Muhtarlık
7117830673	41.1224009	28.8792233	Cebeci Köyü
7117838583	41.0721305	28.8830906	Cevatpaşa
7117840738	41.0346737	29.0728885	Büyük Çamlıca Camii Peronlar
7117865551	41.0143243	29.0873114	Tufan Sokak
7117865552	41.0142910	29.0874178	Tufan Sokak
7117873481	41.0225452	29.2159297	Halit Bin Velit Cami
7117908333	41.1422559	28.4591669	Çatalca Merkez (Avcılar Yönü)
7138854975	41.0127702	29.0822821	Özanakent
7138854976	41.0127089	29.0824285	Özanakent
7138854983	41.0088705	29.0802126	Şehit Recep Büyük
7138854984	41.0088694	29.0803776	Şehit Recep Büyük
7138855286	41.0103895	29.0791987	Karlıdere Caddesi
7138855287	41.0104502	29.0793609	Karlıdere Caddesi
7138855296	41.0071632	29.0776645	Deniz Sokak
7138855300	41.0100037	29.0746164	Kırklar
7138862587	41.0078389	29.0736774	Devlet Su İşleri 14. Bölge Müdürlügğü
7138862588	41.0075036	29.0732521	Devlet Su İşleri 14. Bölge Müdürlügğü
7138862589	41.0061921	29.0757089	Baraj Yolu Sokak
7153690126	41.0251921	29.0839425	Ümraniye Metro
7187474572	41.0792471	28.6921431	Vaditepe 4.Bölge
7187504816	41.0715446	28.6890258	Gölet
7187512988	41.0765928	28.6965832	Vaditepe 2.Bölge
7220817350	40.9808049	28.7231984	Fatih Sokak
7220821128	41.0204468	28.6880311	Belediye Alt Geçidi
7251213435	41.0672070	29.0139010	Zincirlikuyu Metrobüs
7260816948	41.0627515	28.6799902	Batı Kapısı
7511489452	41.0631334	28.6790056	Batı Kapısı
7511691190	41.0638451	28.6820093	Funda
7511691191	41.0639829	28.6845346	Kızlı Havuz
7511691192	41.0672204	28.6845635	Gül
7511691193	41.0670883	28.6843020	Gül
7511691194	41.0686825	28.6841611	Bahçeşehir Camii
7511691195	41.0727635	28.6920713	Alaçayır
7566083371	41.0060182	29.2159576	60.Yıl Sarıgazi Ortaokulu
7566083372	41.0058560	29.2158140	60.Yıl Sarıgazi Ortaokulu
7593718548	41.0044190	29.2131750	Sarıgazi Mesleki Teknik Anadolu Lisesi;Sarıgazi İmam Hatip Ortaokulu
7595690176	41.0076222	29.2148954	Sarıgazi Köyiçi
7595690177	41.0084250	29.2148240	Sarıgazi Merkez
7595690179	41.0066830	29.2073490	Balkan Sokak
7810984107	41.0031375	28.8902690	Zeytinburnu
7817289554	41.0153799	29.1636512	Dudullu Metro
7817431991	41.0086331	29.2117525	Sancaktepe Kaymakamlığı
7829356644	41.0046039	29.2019122	Sarıgazi Garajı
7829356645	41.0047842	29.2019765	Sarıgazi Garajı
7829356660	41.0047799	29.2017223	Sarıgazi Garajı
7837337143	41.0031410	29.2169800	Prof. Dr. Feriha Öz Hastanesi
7837337144	41.0038540	29.2164560	Prof. Dr. Feriha Öz Hastanesi
7837337146	40.9995353	29.2186085	Kuğu Sokak
7837337147	40.9970640	29.2199510	Altınordu Caddesi
7837337148	40.9971551	29.2196058	Altınordu Caddesi
7837337149	40.9948070	29.2213970	Babürşah Caddesi
7837337150	40.9946380	29.2212210	Babürşah Caddesi
7837337151	40.9898120	29.2250750	Sancaktepe Emniyet
7837337152	40.9878507	29.2257484	Sancaktepe Emniyet
7837337153	40.9856540	29.2285892	Samandıra Kültür Merkezi
7837337154	40.9844990	29.2303742	Samandıra
7837337155	40.9844809	29.2322175	Samandıra Merkez Metro
7837337156	40.9862920	29.2323760	Samandıra
7837337157	40.9884300	29.2316270	Samandıra Mesleki ve Teknik Lisesi
7837337158	40.9900351	29.2295254	Samandıra Kız Anadolu İHL
7837337164	41.0104025	29.2097637	Meclis Mahallesi
7837337165	41.0114420	29.2091590	Meclis Mahallesi
7837337166	41.0133823	29.2072734	Gülbahçe Sokak
7837337167	41.0131440	29.2071880	Gülbahçe Sokak
7837337169	41.0159300	29.1795540	Necip Fazıl Metro
7837337170	41.0168341	29.1779353	Necip Fazıl Metro
7837337171	41.0153315	29.1816853	Kemerdere Köprülü Kavşak
7837337172	41.0143960	29.1896060	Çekmeköy Metro
7837337174	40.9809447	29.2335132	Sardunya Evleri
7837337175	40.9809558	29.2328890	Sardunya Evleri
7837337176	40.9778752	29.2379898	Bakkal
7837337177	40.9777906	29.2375275	Bakkal
7837337180	40.9721160	29.2486780	Hasanpaşa
7837337181	40.9720630	29.2482490	Hasanpaşa
7837337182	40.9687849	29.2518324	Mescidi Aksa Cami
7837337184	40.9681951	29.2541980	Dumlupınar
7837347385	40.9688926	29.2590428	Fatih Sultan Mehmet Mezarlığı
7837347386	40.9690138	29.2578777	Fatih Sultan Mehmet Mezarlığı
7837347387	40.9681100	29.2627940	Çiftlik
7837347388	40.9663210	29.2692280	Sultanbeyli Merkez
7837347389	40.9660860	29.2707910	Sultançeşme
7837347390	40.9658208	29.2710960	Sultançeşme
7837347391	40.9662280	29.2748760	Fatih Bulvarı
7837347392	40.9657870	29.2754540	Fatih Bulvarı
7837347393	40.9645568	29.2788380	Bağlık Caddesi
7837347394	40.9649310	29.2780680	Bağlık Caddesi
7837347395	40.9641110	29.2829020	Turgut Reis
7837347396	40.9639426	29.2828929	Turgut Reis
7837347397	40.9628375	29.2871198	Karatay Sokak
7837347398	40.9626723	29.2870767	Karatay Sokak
7837347399	40.9612360	29.2908690	Mecidiye
7837347400	40.9609965	29.2908746	Mecidiye
7837347401	40.9587388	29.2961718	Şehit Erdem Diker
7837347402	40.9586800	29.2959524	Şehit Erdem Diker
7837347403	40.9559967	29.2967599	Şehit İhsan Yıldız
7837347404	40.9561446	29.2970227	Şehit İhsan Yıldız
7837347405	40.9532790	29.2999615	Şehit Vahit Kaşçıoğlu
7837347406	40.9514743	29.2973278	Sanayi
7837347407	40.9523585	29.2973401	Sanayi
7837347408	40.9507506	29.2993120	Çiçekli
7837347409	40.9505458	29.2993243	Çiçekli
7837347410	40.9479590	29.2992580	Akşemsettin
7837347411	40.9446651	29.3000668	Şehit Kerem Çalışkancı
7837347412	40.9445750	29.2998480	Şehit Kerem Çalışkancı
7837347413	40.9416582	29.3012900	Bulvar Girişi
7837347414	40.9414953	29.3013763	Bulvar Girişi
7837347419	40.9353486	29.3219997	Tahir Ekşioğlu Cami
7837347420	40.9351934	29.3217895	Tahir Ekşioğlu Cami
7839636028	41.0085970	29.2208280	Sarıgazi Pazar Yeri
7839636029	41.0084588	29.2216533	Sarıgazi Pazar Yeri
7839636030	41.0088110	29.2245020	Ebru Sokak
7839636031	41.0086270	29.2250310	Ebru Sokak
7839636032	41.0088501	29.2310830	Ufuk Caddesi
7839636033	41.0090740	29.2303850	Ufuk Caddesi
7839636034	41.0089820	29.2327850	İhsan Sokak
7839636035	41.0087330	29.2331240	İhsan Sokak
7839636036	41.0086320	29.2366270	Çamlıtepe;Çamlıktepe
7839636037	41.0083821	29.2368670	Çamlıtepe;Çamlıktepe
7839636039	41.0080700	29.2403220	Merve Mahallesi
7839636040	41.0083210	29.2400980	Merve Mahallesi
7839636043	41.0067192	29.2490458	Akabe Caddesi
7839636044	41.0064630	29.2492080	Akabe Caddesi
7839636053	41.0062200	29.2516130	Osmangazi Caddesi
7839636054	41.0060700	29.2512640	Osmangazi Caddesi
7839636055	41.0058390	29.2537400	Mevlana Caddesi
7839636056	41.0054770	29.2544690	Mevlana Caddesi
7839636057	41.0051930	29.2564300	Merve Caddesi
7839636058	41.0050047	29.2564780	Merve Caddesi
7839650098	41.0073620	29.2592080	Seçkin Sokak
7839650099	41.0070930	29.2591900	Seçkin Sokak
7839650100	41.0104360	29.2592720	Aday Sokak
7839650101	41.0106930	29.2589520	Aday Sokak
7839650102	41.0127980	29.2591490	Otlukbeli Caddesi
7839650103	41.0128890	29.2594120	Otlukbeli Caddesi
7839650104	41.0141092	29.2589085	Filiz
7839650105	41.0140123	29.2588665	Filiz
7839650108	41.0162138	29.2577889	Karapınar Sokak
7839650109	41.0161741	29.2576815	Karapınar Sokak
7839650110	41.0179910	29.2575920	Veysel Karani Caddesi
7839650111	41.0180968	29.2571909	Veysel Karani Caddesi
7839650112	41.0189207	29.2558056	Yunus Emre Mahallesi
7839650113	41.0188570	29.2557290	Yunus Emre Mahallesi
7839650114	41.0196820	29.2533990	Gamze Sokak
7839650115	41.0195430	29.2535290	Gamze Sokak
7839650124	41.0192370	29.2504800	Abitler
7839650125	41.0193050	29.2511280	Abitler
7839650126	41.0166670	29.2488650	Aile Sağlığı Merkezi
7839650127	41.0168530	29.2490330	Aile Sağlığı Merkezi
7839650128	41.0136155	29.2454562	Yenidoğan Merkez Cami;Yenidoğan Merkez Camii
7839650131	41.0101400	29.2426910	Umut Sokak
7839708186	41.0089266	29.2085004	Songül Sokak
7839708187	41.0087487	29.2085390	Songül Sokak
7839708188	41.0084150	29.2036650	Nar Çiçeği Sokak
7839708189	41.0082200	29.2036600	Nar Çiçeği Sokak
7839708190	41.0081387	29.1999825	Şehit Prof.Dr. İlhan Varank Eğitim Ve Araştırma Hastanesi
7839708191	41.0079220	29.1997550	Şehit Prof.Dr. İlhan Varank Eğitim Ve Araştırma Hastanesi
7839708196	41.0077750	29.1951410	Ören Sokak
7839708197	41.0076050	29.1953400	Ören Sokak
7839708198	41.0075020	29.1886510	Şehit Öğretmen Nurgül Kale Ortaokulu
7839708199	41.0072960	29.1890340	Şehit Öğretmen Nurgül Kale Ortaokulu
7839708206	41.0074386	29.1853407	Akasya
7839708207	41.0076540	29.1849080	Akasya
7839708208	41.0077450	29.1825917	Baraj Yolu
7839708209	41.0075330	29.1828680	Baraj Yolu
7839708210	41.0074331	29.1785218	Sarıgül
7839708211	41.0072440	29.1787400	Sarıgül
7839708212	41.0071390	29.1758150	Esenşehir Sapağı
7839708213	41.0068598	29.1758127	Esenşehir Sapağı
7839708214	41.0062880	29.1733380	Yenidünya Sitesi
7839708215	41.0063020	29.1736900	Yenidünya Sitesi
7839708223	41.0032680	29.1608700	İmes A Kapısı
7839803895	41.0049420	29.1971160	Şehit Prof.dr İlhan Varank Eğitim Ve Araştırma Hastanesi
7839803896	41.0045970	29.1970510	Şehit Prof.dr İlhan Varank Eğitim Ve Araştırma Hastanesi
7839803897	41.0046550	29.1934830	Ordu Caddesi
7839803898	41.0048330	29.1936670	Ordu Caddesi
7839803899	41.0026490	29.1944710	Mihrican Sokak
7839803900	41.0019950	29.1945410	Mihrican Sokak
7839803901	41.0000130	29.1962360	Turgut Aydın İlkokulu
7839803902	40.9999600	29.1960520	Turgut Aydın İlkokulu
7839803903	40.9979430	29.1980420	Gediz Sokak
7839803904	40.9978580	29.1977830	Gediz Sokak
7839803905	40.9971810	29.1963620	EVPA;Evpa
7839803906	40.9970530	29.1964710	EVPA;Evpa
7839803908	40.9981778	29.1913660	Esenkent Mahallesi
7839803909	40.9977650	29.1872070	Aşık Mahzuni Şerif Caddesi;Aşık Mahsuni Şerif Caddesi
7839803910	40.9975732	29.1870831	Aşık Mahzuni Şerif Caddesi;Aşık Mahsuni Şerif Caddesi
7839803911	40.9994008	29.1872485	Taşkara
7839803912	40.9994265	29.1870276	Taşkara
7839803913	41.0023230	29.1859610	Esenkent Mahalle Muhtarlığı
7839803914	41.0017509	29.1871034	Esenkent Mahalle Muhtarlığı
7839803915	41.0032440	29.1845340	TELETAŞ Tesisleri
7839803916	41.0030630	29.1846450	TELETAŞ Tesisleri
7839803917	41.0048190	29.1808700	Kurtuluş Caddesi
7839803918	41.0046818	29.1808315	Kurtuluş Caddesi
7839803919	41.0057095	29.1788536	Fabrikalar
7839803920	41.0063820	29.1788280	Fabrikalar
7839803932	41.0081870	29.1731450	Şehit Yılmaz Ercan ilkokulu
7839803933	41.0083795	29.1732828	Şehit Yılmaz Ercan ilkokulu
7839803934	41.0093560	29.1725370	Akkaya Sokak
7839803935	41.0092240	29.1725040	Akkaya Sokak
7839803936	41.0113180	29.1693830	Mobilyacılar Sitesi
7839803937	41.0112350	29.1692830	Mobilyacılar Sitesi
7839803938	41.0125908	29.1659371	Kürkçüler Caddesi
7839803939	41.0124830	29.1668050	Kürkçüler Caddesi
7839803940	41.0131414	29.1646483	Dudullu Sondurak
7839855654	41.0123494	29.1771739	İdealistkent Caddesi;İdealist Kent Caddesi
7839855655	41.0121766	29.1773282	İdealistkent Caddesi;İdealist Kent Caddesi
7839855656	41.0112300	29.1831400	Şehit Ünal Kalafat Caddesi
7839855657	41.0110855	29.1830363	Şehit Ünal Kalafat Caddesi
7839855658	41.0123003	29.1869188	Hacı Hakkı Ekşi Camii
7839855659	41.0122303	29.1871020	Hacı Hakkı Ekşi Camii
7839855660	41.0126728	29.1922451	Sevdalı Sokak
7839855661	41.0125960	29.1923252	Sevdalı Sokak
7839855662	41.0096318	29.1940321	Barbaros Caddesi
7839855663	41.0096100	29.1941500	Barbaros Caddesi
7839855666	41.0129239	29.2101907	Fatma Sultan Cami
7839855668	41.0158990	29.2168920	Sultan Gazi Caddesi;Sultangazi Caddesi
7839855669	41.0160610	29.2168830	Sultan Gazi Caddesi;Sultangazi Caddesi
7839855672	41.0164080	29.2261100	Özgürlük Caddesi
7839855673	41.0162754	29.2257632	Özgürlük Caddesi
7839855674	41.0164007	29.2285758	Kale Sokak
7839855676	41.0162780	29.2291990	Kale Sokak
7839855677	41.0175550	29.2305130	Burçak Sokak
7839855678	41.0175620	29.2306810	Burçak Sokak
7839855679	41.0203670	29.2326720	Çekmeköy Ağız ve Diş Sağlığı Merkezi
7839855680	41.0205050	29.2325860	Çekmeköy Ağız ve Diş Sağlığı Merkezi
7839855681	41.0216560	29.2335330	Cemre Sokak
7839855682	41.0217980	29.2339720	Cemre Sokak
7839855683	41.0229778	29.2350960	Adnan Kahveci
7839855684	41.0230066	29.2349544	Adnan Kahveci
7839861685	41.0255525	29.2326640	Sağlık Ocağı
7839861686	41.0255351	29.2326119	Sağlık Ocağı
7839861687	41.0253365	29.2313044	Güven Sokak
7839861688	41.0252620	29.2313380	Güven Sokak
7839861689	41.0240420	29.2279710	Vatan Caddesi
7839861690	41.0239170	29.2279740	Vatan Caddesi
7840240130	41.0169888	29.1767992	Kemerdere
7840240131	41.0178590	29.1737060	Mustafa Vasıf Karslıgil İlkokulu
7840240132	41.0177010	29.1733560	Mustafa Vasıf Karslıgil İlkokulu
7840240145	41.0184580	29.1692240	Çekmeköy Sapağı
7840240146	41.0181065	29.1699169	Çekmeköy Sapağı
7840240147	41.0163535	29.1607859	Dudullu
7840240149	41.0136737	29.1643377	Dudullu
7840240150	41.0133682	29.1641399	Dudullu
7840240151	41.0168709	29.1569018	Osmangazi
7840240152	41.0166825	29.1565652	Osmangazi
7840240153	41.0164562	29.1537732	Ümraniye Anadolu İmam Hatip Lisesi
7840240154	41.0164858	29.1546196	Ümraniye Anadolu İmam Hatip Lisesi
7840240155	41.0160336	29.1498221	Çayırönü
7840240156	41.0158254	29.1502150	Çayırönü
7840240157	41.0161291	29.1453946	Ihlamurevleri
7840240158	41.0164586	29.1432136	Altınşehir
7840240159	41.0162493	29.1431684	Altınşehir
7840240160	41.0170738	29.1375226	Cemil Meriç Mahallesi
7840240161	41.0167753	29.1377499	Cemil Meriç Mahallesi
7840240162	41.0177713	29.1346013	Ihlamukuyu
7840240163	41.0175044	29.1348301	Ihlamukuyu
7840240164	41.0188961	29.1321981	Yeni İstanbul Çarşısı
7840240165	41.0187674	29.1320064	Vergi Dairesi
7840246122	41.0001589	29.1784937	DES B Kapısı
7840246123	41.0001560	29.1780040	DES B Kapısı
7840246125	40.9965672	29.1779769	4. Cadde
7840324693	41.0100349	29.1642230	Yukarı Dudullu
7840324694	41.0102728	29.1641478	Yukarı Dudullu
7840324695	41.0074968	29.1619592	Modoko
7840324696	41.0076370	29.1623710	Modoko
7840324697	41.0047724	29.1595747	İMES
7840324698	41.0050517	29.1601336	İMES
7840324699	41.0012786	29.1563480	İMES Bulvarı
7840324700	41.0012812	29.1567762	İMES E Kapısı
7840324701	40.9995519	29.1553556	İMES E Kapısı
7840324702	40.9983353	29.1550471	Dudullu Otogar
7840324703	40.9973170	29.1547118	Dudullu Otogar
7840324704	40.9925725	29.1530891	Kemalpaşa
7840324705	40.9929120	29.1546954	Kemalpaşa
7840324706	40.9913236	29.1513461	Necip Fazıl Bulvarı
7840324707	40.9907835	29.1491280	Necip Fazıl Bulvarı
7840324708	40.9898853	29.1476135	Yenişehir Pazar Yeri
7840324709	40.9895519	29.1475781	Yenişehir Pazar Yeri
7840324710	40.9883131	29.1450188	Cemile Besler İlkokulu
7840324711	40.9872197	29.1439191	Cemile Besler İlkokulu
7840324716	40.9859325	29.1382574	Cahit Zarifoğlu Anadolu İmam Hatip Lisesi
7840324718	40.9827577	29.1340115	Gümrük Bölge Müdürlüğü
7840324719	40.9822117	29.1342709	Gümrük Bölge Müdürlüğü
7840324720	40.9814679	29.1323983	Kayışdağı-Dudullu Caddesi
7840324725	40.9787079	29.1247589	Ataşehir 100. Yıl Cumhuriyet Anadolu Lisesi
7840324726	40.9781023	29.1242212	Ataşehir Anadolu Lisesi
7840324727	40.9774111	29.1245450	Ataşehir Anadolu Lisesi
7840324728	40.9777500	29.1253236	Ataşehir Anadolu Lisesi
7840324729	40.9781738	29.1204038	Fevzipaşa
7840324730	40.9781877	29.1216855	Fevzipaşa
7840324731	40.9785831	29.1177726	Meskenler
7840324732	40.9784537	29.1165834	Meskenler
7840324733	40.9789726	29.1137234	Küçükbakkalköy
7840324734	40.9787780	29.1140154	Küçükbakkalköy
7840324735	40.9783921	29.1131399	Küçükbakkalköy
7840324736	40.9791611	29.1100855	Acıbadem Üniversitesi
7840324737	40.9789818	29.1098328	Acıbadem Üniversitesi
7840324738	40.9795121	29.1054562	Karaman Çiftlik Yolu
7840324739	40.9792376	29.1059199	Karaman Çiftlik Yolu
7840324740	40.9776117	29.1036800	Yeni Hal
7840324741	40.9756950	29.1021055	Çayır Caddesi
7840331164	41.0056300	29.1571970	MODOKO Girişi;Modoko Girişi
7840331165	41.0049740	29.1584590	KEYAP;Keyap
7840331166	41.0048760	29.1541460	KEYAP Caddesi;Keyap Caddesi
7840331168	41.0045000	29.1497840	Selçuk Ecza 50.yıl Ortaokulu
7840331169	41.0044600	29.1494460	Selçuk Ecza 50.yıl Ortaokulu
7840331170	41.0054320	29.1470110	Çetin Caddesi
7840331171	41.0057700	29.1466010	Çetin Caddesi
7840331172	41.0067690	29.1443040	Erol Sokağı
7840331173	41.0066420	29.1450740	Erol Sokağı
7840331174	41.0083902	29.1412329	Ümraniye SGK
7840331175	41.0084991	29.1414504	Ümraniye SGK
7840331178	41.0113730	29.1368890	TEV Zahide Zehra Garring Ortaokulu;
7840331180	41.0136460	29.1345927	İstikbal Sokak
7840331181	41.0134083	29.1347838	İstikbal Sokak
7840331182	41.0142890	29.1317910	Gençtürk Sokak
7840331183	41.0142200	29.1316790	Gençtürk Sokak
7840331184	41.0165439	29.1295888	Eski Kadıköy Yolu Caddesi
7840368585	41.0159318	29.1300951	Eski Kadıköy Yolu Caddesi
7840368586	41.0162723	29.1275231	Ümraniye İtfaiye
7840368587	41.0170092	29.1260505	Fatih İlkokulu
7840368588	41.0182883	29.1244579	Ağaoğlu Sokak
7840368589	41.0179283	29.1279869	Çakmak Spor Tesisleri
7840368591	41.0195996	29.1248345	Çakmak Merkez Camii
7840368592	41.0202725	29.1226744	Bağcı Sokak
7840368594	41.0207534	29.1247502	Ümraniye Engelliler Merkezi
7842690246	40.9854171	29.2265508	Semerkand
7842690247	40.9844096	29.2267948	Kafiye Sokak
7842690248	40.9832870	29.2245890	Kızılay Caddesi
7842690249	40.9832044	29.2247807	Kızılay Caddesi
7842690250	40.9819900	29.2225810	Kızılay
7842690251	40.9814576	29.2218910	Kızılay
7842690252	40.9813200	29.2206550	Diş Hastanesi
7842690253	40.9760820	29.2194610	Topal Osman Caddesi
7842690254	40.9763440	29.2197600	Topal Osman Caddesi
7842690259	40.9719210	29.2193977	Otaban Girişi
7842690260	40.9705580	29.2201040	Otaban Girişi
7842690261	40.9666690	29.2127200	Zeybek Sokak
7842690262	40.9658456	29.2159092	Yakacık Caddesi
7842690265	40.9600640	29.2147620	Fatih Mahallesi
7842690266	40.9600430	29.2149710	Fatih Mahallesi
7842690267	40.9524900	29.2147200	Nizamiye
7842690268	40.9525650	29.2149520	Nizamiye
7842690269	40.9502220	29.2152675	Büyükbakkalköy Caddesi
7842690270	40.9502490	29.2155370	Büyükbakkalköy Caddesi
7842690271	40.9411590	29.2175610	Çamlık;Aydos Mesire Yeri
7842690272	40.9404648	29.2152073	Şehitler Cami
7842690273	40.9406050	29.2157834	Şehitler Cami
7842690274	40.9389450	29.2126706	Bingöl Sitesi
7842690275	40.9388934	29.2128162	Bingöl Sitesi
7842690276	40.9354063	29.2152910	Adnan Kahveci
7842690277	40.9332792	29.2132951	Aydınlar Sitesi
7842690278	40.9328559	29.2127062	Aydınlar Sitesi
7842690282	40.9282554	29.2133409	Yunus Emre
7842690283	40.9287724	29.2136888	Yunus Emre
7842725885	40.9238311	29.2084377	Şehit Aydın Çelik
7842725888	40.9009964	29.2069847	Kartal Poliklinikler
7842725889	40.8980060	29.2055889	Spor Caddesi
7842725890	40.8980990	29.2054220	Spor Caddesi
7842725891	40.8952299	29.2013525	Dağ Sokağı;Dağ Sokak
7842725892	40.8945840	29.2000670	Dağ Sokağı;Dağ Sokak
7842725893	40.8933600	29.1955160	Çavuşoğlu
7842725894	40.8931773	29.1955715	Çavuşoğlu
7842725895	40.8920770	29.1917990	Kartal Hükümet Konağı
7842725896	40.8920927	29.1923620	Kartal Hükümet Konağı
7842725897	40.8899373	29.1903023	Kartal Neyzen Tevfik Meydanı
7842726036	40.9096716	29.2112813	Marifet Sokak
7842726038	40.9098700	29.2153660	Alicanoğlu
7842726041	40.9144600	29.2189370	Yakacık Yolu
7842726042	40.9140350	29.2187400	Yakacık Yolu
7842726043	40.9163710	29.2209200	Yakacık Lisesi
7842726044	40.9159860	29.2219300	Yakacık Lisesi
7842726045	40.9192420	29.2236780	Yakacık
7842726047	40.9199023	29.2248490	Yakacık
7842726048	40.9218019	29.2237560	Darüşşafaka
7842726049	40.9210037	29.2241859	Darüşşafaka
7842726050	40.9241042	29.2221459	Aydos Yolu
7842726051	40.9243918	29.2219381	Aydos Yolu
7842726052	40.9255969	29.2241572	Orman Sokak
7842726053	40.9263937	29.2221465	Gülbağ Sokak
7842726054	40.9271210	29.2220750	Gülbağ Sokak
7842726056	40.9313556	29.2205757	Bulvar
7842726057	40.9312222	29.2203888	Bulvar
7842726058	40.9295810	29.2165650	Yunus Emre Caddesi
7842726059	40.9295300	29.2166880	Yunus Emre Caddesi
7842726073	40.9566420	29.2114030	Büyükbakkalköy Sapağı
7842726074	40.9565480	29.2112720	Büyükbakkalköy Sapağı
7842726075	40.9633831	29.2040195	Maltepe Cezaevi
7842726076	40.9632521	29.2038284	Maltepe Cezaevi
7842726077	40.9642939	29.2031190	Cezaevi Ziyaretçi Girişi
7842726078	40.9642091	29.2030168	Cezaevi Ziyaretçi Girişi
7842726079	40.9601471	29.1947971	Maltepe Üniversitesi
7842726080	40.9684700	29.1987820	İsmet Kuralkan İlkokulu
7842726081	40.9684413	29.1992169	İsmet Kuralkan İlkokulu
7842726082	40.9710730	29.1984220	Büyükbakkalköy
7842726083	40.9715500	29.2041130	Samandıra Yolu Sokak
7842726084	40.9709567	29.2035269	Samandıra Yolu Sokak
7842726085	40.9776699	29.2145045	Hacı Ahmet Kahraman Camii
7842726086	40.9775648	29.2146536	Hacı Ahmet Kahraman Camii
7842876061	40.9860220	29.2336119	Şeref Sokak
7842876062	40.9859120	29.2336820	Şeref Sokak
7842876068	40.9892000	29.2435140	Hilal Caddesi
7842876069	40.9890320	29.2435710	Hilal Caddesi
7842876070	40.9904710	29.2465810	Aydoğdu Sokak;Aydoğdu Caddesi
7842876071	40.9904150	29.2466987	Aydoğdu Sokak;Aydoğdu Caddesi
7842876072	40.9905380	29.2495550	Hızır Reis Sokak
7842876073	40.9904364	29.2496422	Hızır Reis Sokak
7842876078	40.9925800	29.2485580	Nermin Ahmet Hasoğlu İmamhatip Ortaokulu;Nermin Ahmet Hasoğlu İmam Hatip Ortaokulu
7842876079	40.9926740	29.2483650	Nermin Ahmet Hasoğlu İmamhatip Ortaokulu;Nermin Ahmet Hasoğlu İmam Hatip Ortaokulu
7842921300	40.9945460	29.2480700	Genç Osman Caddesi;Gençosman Caddesi
7842921301	40.9942710	29.2479920	Genç Osman Caddesi;Gençosman Caddesi
7842921302	40.9972852	29.2513725	Çatalzeytin
7842921303	40.9971804	29.2515931	Çatalzeytin
7842921304	40.9992647	29.2546542	Burçak Sokak
7842921305	40.9989990	29.2546093	Burçak Sokak
7842921306	41.0023486	29.2581500	Akyıldız Caddesi
7842921307	41.0024500	29.2584300	Akyıldız Caddesi
7842921308	40.9926075	29.2426994	Rüheyda Sokak
7842921309	40.9923750	29.2426470	Rüheyda Sokak
7842921310	40.9893332	29.2366866	Atayolu Caddesi
7842921311	40.9894520	29.2376400	Atayolu Caddesi
7842921315	40.9789890	29.2384240	Alsancak Caddesi
7842921316	40.9793150	29.2389350	Alsancak Caddesi
7842921317	40.9822713	29.2416107	Bilal-i Habeşi Caddesi
7842921318	40.9820950	29.2411895	Bilal-i Habeşi Caddesi
7842921319	40.9835550	29.2442980	İntizam Sokak
7842921320	40.9833940	29.2449900	İntizam Sokak
7842921321	40.9866060	29.2482500	Alaattin Cami;Alaattin Camii
7842921322	40.9866800	29.2485754	Alaattin Cami;Alaattin Camii
7842921323	40.9889600	29.2512450	Beyti Sokak
7842921325	40.9894871	29.2470386	Narin Sokak
7842921326	40.9894450	29.2472830	Narin Sokak
7842921327	40.9894937	29.2497853	Kavaklık
7842921328	40.9894350	29.2508670	Kavaklık
7842921329	40.9930742	29.2281644	Sancaktepe Belediyesi
7842921330	40.9919706	29.2284924	Sancaktepe Belediyesi
7842921331	40.9955390	29.2273990	Sevenler Caddesi
7842921332	40.9954105	29.2271735	Sevenler Caddesi
7842921333	41.0005262	29.2270738	Şehit Er Hasan Genş İlkokulu;Şehit Er Hasan Genç İlkokulu
7842921334	41.0001860	29.2273010	Şehit Er Hasan Genş İlkokulu;Şehit Er Hasan Genç İlkokulu
7842921335	41.0042720	29.2282190	Stad Sokak
7842921336	41.0041930	29.2283990	Stad Sokak
7842921337	41.0081042	29.2293236	Halife Caddesi
7842921338	41.0081200	29.2295380	Stad Sokak;Halife Caddesi
7842921339	41.0036470	29.2301151	Ravza Caddesi
7842921341	41.0031622	29.2350150	Haznedar Sokak
7842921343	41.0036090	29.2391220	Gazi Caddesi
7842921344	40.9991406	29.2366546	Külliye Caddesi
7842921345	40.9986805	29.2356771	Külliye Caddesi
7842921346	40.9971360	29.2340110	Turgut Özal Caddesi
7842921347	40.9964578	29.2338971	Turgut Özal Caddesi
7842921348	40.9931610	29.2313654	Ebubekir Caddesi
7842921349	40.9932750	29.2311430	Ebubekir Caddesi
7864200774	41.0310848	28.9888719	Fındıklı
7866448396	40.9638118	29.2351984	RTE Caddesi
7866448397	40.9634380	29.2374930	Veysel Karani İlkokulu
7866448398	40.9634824	29.2380692	Veysel Karani İlkokulu
7866448399	40.9628210	29.2420231	Sultanahmet Camii
7866448401	40.9648130	29.2432010	Yeşil Sokak
7866448402	40.9648400	29.2424870	Yeşil Sokak
7866448403	40.9674080	29.2437310	Fatih Sultan Cami;Fatih Sultan Camii
7866448404	40.9675920	29.2430930	Fatih Sultan Cami;Fatih Sultan Camii
7866448405	40.9704376	29.2440731	Ulugazi Caddesi
7866448406	40.9700113	29.2444842	Ulugaz Caddesi
7866448407	40.9720270	29.2466201	Asil Türk Caddesi
7866448408	40.9719838	29.2467064	Asil Türk Caddesi
7866448409	40.9744474	29.2346648	Malkoçoğlu Caddesi
7866448410	40.9725626	29.2335796	Reis Sokak
7866448412	40.9711210	29.2326260	Sağlık Ocağı
7866448413	40.9689683	29.2360763	Sur Sokak
7866448414	40.9684312	29.2311796	Cengiz Topel İlkokulu
7866448415	40.9684884	29.2310469	Cengiz Topel İlkokulu
7866448416	40.9649910	29.2290082	Cansu Sokak
7866448417	40.9650309	29.2289242	Cansu Sokak
7866448418	40.9622392	29.2264213	Rüzgarlı Sokak
7866448419	40.9622340	29.2265070	Rüzgarlı Sokak
7866448422	40.9607920	29.2201450	Zerafet Sokak
7866448423	40.9606990	29.2200850	Zerafet Sokak
7866448424	40.9612390	29.2159550	Fetih Sokak
7866448425	40.9611100	29.2162380	Fetih Sokak
7875173742	40.9580390	29.0980224	Bostancı Atatürk Ortaokulu
7875173743	40.9600141	29.1005682	Çınar
7875173744	40.9564825	29.0990977	Bostancı Gösteri Merkezi
7875173745	40.9579047	29.1011794	Konak Sokak
7875173746	40.9611768	29.1028631	Ali Nihat Tarlan Caddesi
7875173747	40.9617429	29.1029618	Ali Nihat Tarlan Caddesi
7875173748	40.9640941	29.1045468	Bostancı Sapağı
7875173749	40.9654418	29.1061171	Bostancı Sanayii
7875173751	40.9737434	29.1200053	İçerenköy Polis Merkezi
7875173752	40.9756589	29.1222028	Hasan Leyli İlkokulu
7875173753	40.9704960	29.1114034	İçerenköy
7875173755	40.9790225	29.1295604	İETT Lojmanları
7875173756	40.9791184	29.1323161	İETT Garajı
7875173757	40.9787370	29.1335840	İETT Garajı;İett Garajı
7875173758	40.9788114	29.1355803	Gümrük Üstkapı
7875173759	40.9785486	29.1364465	Gümrük Üstkapı
7875173760	40.9787502	29.1382178	Kayışdağı İlkokulu
7875173761	40.9785171	29.1380719	Kayışdağı İlkokulu
7875173762	40.9785565	29.1409043	Kayışdağı Yolu
7875173763	40.9782479	29.1406220	Kayışdağı Yolu
7875173766	40.9774697	29.1477728	Darülaceze Müdürlüğü
7875173767	40.9772039	29.1476242	Darülaceze Müdürlüğü
7875173768	40.9768856	29.1504457	Celal Yardımcı İlkokulu
7875173769	40.9766443	29.1503126	Celal Yardımcı İlkokulu
7875173770	40.9750878	29.1537185	Yeditepe Üniversitesi Kampüsü
7875173771	40.9745658	29.1539219	Yeditepe Üniversitesi Kampüsü
7875173772	40.9803674	29.1425164	Erdem Sitesi
7875173773	40.9804504	29.1423796	Erdem Sitesi
7875173774	40.9841539	29.1432272	Akyazı Caddesi
7875173775	40.9839109	29.1433264	Akyazı Caddesi
7875173776	40.9812473	29.1479289	Kayışdağı Mahallesi Muhtarlığı
7875173777	40.9810629	29.1478793	Kayışdağı Mahallesi Muhtarlığı
7875173778	40.9808678	29.1506777	Fatih Cami
7875173779	40.9805924	29.1510746	Fatih Cami
7875174988	40.9863783	29.1592140	Kelebek Sokak
7875174992	40.9845470	29.1662440	YEDPA;Yedpa
7875174993	40.9850150	29.1666340	YEDPA;Yedpa
7922818619	41.0467506	29.0984449	Malatya Caddesi
7986710087	41.1137688	29.0894747	İBB Sosyal Tesisleri
8017436832	40.9828084	29.0714197	Öğretmen Harun Reşit İlkokulu
8079081007	40.9928084	29.1229440	Ataşehir Plazalar
8286694499	41.0005963	29.2123964	Prof. Dr. Feriha Öz Hastanesi
8398252644	41.0004982	28.9447061	Yenikapı Etkinlik Alanı
8568904357	41.0648310	28.9790390	Çiftecevizler
8706897636	41.0139681	29.1964478	çamlık;Çamlık
8725874934	41.0816919	28.5179202	Bend Caddesi
8736770659	41.0363481	29.0762544	Üzüm Sokak
8737015059	41.0366006	29.0734353	Bayır Sokak
8737015061	41.0392426	29.0706689	Mehmet Akif Ersoy Mahallesi
8737015062	41.0394048	29.0705431	Mehmet Akif Ersoy Mahallesi
8737015064	41.0395308	29.0689876	Yeni Şahin Sokak
8737089891	41.0579311	28.9125846	Gaziosmanpaşa Meydan
8738755195	41.0190471	28.5650265	Mimar Sinan
8742328835	40.9811210	29.0794471	Nevzat Ayasbeyoğlu Ortaokulu
8742545978	40.9318692	29.1283581	Maltepe Belediyesi
8746248625	40.9986763	29.1399556	Kıble Sokak
8783015008	41.0519305	28.9165189	Bosnalılar
8783015019	41.0546203	28.9143339	Plevne Lisesi
8808697850	41.0559501	28.9139882	Halitpaşa Caddesi
8808697851	41.0567924	28.9139343	Halitpaşa Caddesi
8836547194	41.0100775	29.1276915	Şehit Murat Filik Parkı
8839049028	41.0900375	28.7194036	İbrahim Koçaslan Ortaokulu
8839049031	41.0862570	28.7176070	Muratdere Caddesi
8839049032	41.0863010	28.7177510	Muratdere Caddesi
8839049033	41.0831610	28.7165880	Garipcan Sokak
8839049034	41.0832580	28.7165130	Garipcan Sokak
8853238931	41.0295006	28.5544583	Tepecik
8911954628	41.0240564	28.9225492	Bayrampaşa - Maltepe Metrobüs
8911954630	41.0242912	28.9226570	Bayrampaşa - Maltepe Metrobüs
8921999346	41.0825140	28.8737280	Meskenler
8921999360	41.0795772	28.8764514	Kiptaş Venezia
8947266610	41.1116066	28.8755955	Cebeci Köyü Yolu
8947266611	41.1112976	28.8753921	Cebeci Köyü Yolu
8947266612	41.1103605	28.8716455	Cebeci Mahallesi
8947266613	41.1102419	28.8716201	Cebeci Mahallesi
8947266614	41.1094305	28.8682050	Huzur
8947266615	41.1093133	28.8681795	Huzur
8947266616	41.1086674	28.8654824	Cebeci Muhtarlığı
8947281217	41.1085754	28.8655708	Cebeci Muhtarlığı
8947281219	41.1075362	28.8614854	1. Cebeci Caddesi
8947281220	41.1065791	28.8602591	İbrahim Yıldız (Sultançiftliği Yönü)
8947281221	41.1048545	28.8613596	Sultançiftliği (Arnavutköy Yönü)
8947281222	41.1004151	28.8627823	İvat Turan İlkokulu (Edirnekapı Yönü)
8947281223	41.1004815	28.8631330	İvat Turan İlkokulu (Sultançiftliği Yönü)
8947281229	41.0977864	28.8632911	Sultançiftliği Dörtyol (Sultançiftliği Yönü)
8947281231	41.0973771	28.8629992	Sultançiftliği Dörtyol (Edirnekapı Yönü)
8947281232	41.0952989	28.8633726	Bezmialem Vakıf Üniversitesi (Edirnekapı Yönü)
8947281233	41.0948255	28.8637956	Bezmialem Vakıf Üniversitesi (Sultançiftliği Yönü)
8947281234	41.0908271	28.8645616	İstek Vakfı (Sultançiftliği Yönü)
8947281236	41.0881762	28.8658337	Baştabya (Edirnekapı Yönü)
8947281237	41.0882230	28.8665860	Baştabya (Sultançiftliği Yönü)
8947281239	41.0837140	28.8720748	Cumhuriyet Mahallesi
8990639674	41.0704770	28.9024930	Vefa Poyraz Lisesi;Vefa Poyraz Anadolu Lisesi
9062726598	41.0690488	28.9163732	Kavaklı Dere
9076991217	41.1032657	28.9851722	Vadistanbul
9077651076	41.0579969	28.9164991	Gaziosmanpaşa Belediye
9094712863	41.0483412	28.9202638	Rami
9128758957	41.0562087	28.3681309	Selimpaşa
9162657672	41.1326469	28.8262128	Habipler Transit Yol
9162657738	41.1365199	28.8199221	Arnavutköy Yolu
9162657739	41.1362401	28.8188052	Arnavutköy Yolu
9162657819	41.1707348	28.7591591	Yol Bakım
9162657820	41.1712390	28.7590040	Yol Bakım
9162657878	41.1738981	28.7529399	Boğazköy Yolu
9162657879	41.1745040	28.7533088	Boğazköy Yolu
9218530172	41.0370730	28.9234872	Demirkapı Sanayi
9219448872	41.0501174	28.9189242	Dumlupınar Camii
9219448873	41.0518227	28.9172197	Bosnalılar
9219448874	41.0540767	28.9141955	Plevne Lisesi
9230312080	41.0793734	28.9749686	Kağıthane
9232837724	40.8739934	29.1291275	Araba Meydanı
9232837728	40.8731128	29.1275931	Polis Merkezi
9232837733	40.8702546	29.1272995	Kadıyoran 2
9232837734	40.8702146	29.1286675	Hastane
9232837735	40.8702636	29.1302075	Çarkıfelek
9232837736	40.8693529	29.1308981	Erdal Bakkal
9232837737	40.8673363	29.1294769	Mezarlık
9232837746	40.8642910	29.1240164	Manastır
9232837747	40.8660931	29.1253934	Kadıyoran 1
9232837748	40.8681570	29.1252193	Taş Mektep
9232837749	40.8728977	29.1316702	Çınar Caddesi
9232843282	40.8704412	29.1222559	Adliye
9232843283	40.8696590	29.1175279	Köşk
9232843284	40.8658986	29.1159889	Değirmen Plajı
9232843285	40.8637982	29.1164563	Nizam Cami
9232843286	40.8614618	29.1142600	Dilburnu
9232843287	40.8605594	29.1170612	Aşıklar
9232843288	40.8579836	29.1200145	Lunapark
9232843289	40.8536877	29.1247199	Nikola Manastırı Yolu
9232843290	40.8566036	29.1248824	Adalar Müzesi
9232843299	40.8597750	29.1280828	Yılmaz Türk
9232843300	40.8628431	29.1312372	Maden Çıkmazı
9232843301	40.8655415	29.1326450	Mimoza Sokak
9232843302	40.8663593	29.1350359	Nakibey Plajı
9232843303	40.8691716	29.1359510	Mercan Sokak
9232843304	40.8711695	29.1349427	Halk Eğitim Merkezi
9232843305	40.8714898	29.1340223	Sevili Cami
9232843648	40.8731854	29.1334136	Pervane Sokak
9232843649	40.8727531	29.1348619	Kumsal
9232843650	40.8721319	29.1362889	Zagnos Paşa Caddesi
9232843651	40.8707668	29.1364179	Alparslan Sokak
9232868044	40.8847686	29.0650811	Öğretmen Evi
9232868046	40.8845580	29.0619654	Cennet yolu Sokak
9232868047	40.8841661	29.0595032	Aya Nikola
9232988283	40.8712413	29.0972561	Mezarlıklar
9248177226	40.9069066	29.0446496	Kınalıada  Halk Plajı
9248177228	40.9036059	29.0527269	Garaj
9248177230	40.9110582	29.0533247	Tekinay 1
9255575417	40.9799055	29.0800445	Siteler
9260554240	41.0373384	29.0660980	Sağlık Sokak
9288129888	40.9808980	29.0908712	Sahrayıcedit Atatürk Caddesi
9293380773	41.0391857	28.9912124	Gümüşsuyu
9312377098	41.0466836	28.9006571	Ayancık Sokak
9312377103	41.0450695	28.9097597	Bayrampaşa Spor Kompleksi
9348210440	41.0603060	28.9026420	Çukurçeşme Caddesi
9353423587	41.0654537	28.8402083	Batışehir
9384897886	41.1136478	29.0249741	
9384897888	41.1174105	29.0245096	
9384897907	41.1304810	29.0245056	
9392706887	41.0443306	28.9112658	Tuna Anadolu Lisesi
9425196440	41.0524326	28.8990922	Kocatepe Mahallesi
9438924211	41.0477734	28.9140846	Sağlık Merkezi (Edirnekapı Yönü)
9438924216	41.0443223	28.9115056	Tuna Anadolu Lisesi
9441068991	41.0528641	28.9594054	Cemal Kamacı
9441068992	41.0528860	28.9609141	Nişangah
9441068993	41.0579011	28.9647895	Okmeydanı
9441068994	41.0601026	28.9667671	Darülaceze
9441068996	41.0621023	28.9679264	Darülaceze;Perpa 2
9441068997	41.0648140	28.9717620	Prof.Dr.Cemil Taşçıoğlu Şehir Hastanesi;Cevdet Şamikoğlu Ortaokulu
9482150457	41.0461982	28.9170367	Talimhane Caddesi
9487684023	41.0556236	28.9558099	Örnektepe Yolu
9487710937	41.0578188	28.9548507	Örnektepe Caddesi
9492812450	41.0881700	28.5139620	Ahmediye
9521397749	41.0948775	28.7400128	Kayabaşı Kiptaş Peron
9542993303	41.1329840	28.8342053	Habipler
9557511395	41.1463737	28.8637855	Çimen Sokak
9557511397	41.1453052	28.8616773	Köroğlu
9557511398	41.1465018	28.8570836	Yayla Mahallesi
9557511399	41.1465378	28.8568758	Yayla Mahallesi
9557511401	41.1476893	28.8562095	Yayla Bulvarı
9557511402	41.1476843	28.8558313	Yayla Bulvarı
9557511412	41.1483270	28.8532175	Yayla Mahallesi Muhtarlık
9557511413	41.1482249	28.8528744	Yayla Mahallesi Muhtarlık
9557546218	41.1473325	28.8467771	Yaylatepe
9557546219	41.1472019	28.8467231	Yaylatepe
9557546240	41.1467763	28.8422787	Yeşilyayla Mezarlığı
9557546241	41.1466693	28.8420352	Yeşilyayla Mezarlığı
9557546242	41.1392343	28.8328620	Araba Konağı
9557546243	41.1393717	28.8330819	Araba Konağı
9557546244	41.1354683	28.8330005	Betül
9557546245	41.1353344	28.8332753	Betül
9557546246	41.1295354	28.8375199	Habipler Mahallesi
9557546247	41.1289555	28.8384507	Habipler Mahallesi
9557546248	41.1276442	28.8398669	İsfalt
9557546249	41.1275269	28.8405948	İsfalt
9610591357	41.0202166	28.9636588	Haliç Metro
9633389447	41.1825476	28.7422198	Arnavutköy Merkez
9652648641	41.0778184	28.9711169	Kağıthane Park
9653508866	41.0145111	29.0573010	Acıbadem
9654423009	41.1205486	28.8453064	Mescid-i Selam Camii (Sultançiftliği Yönü)
9654423010	41.1202293	28.8463014	Mescid-i Selam Camii (Arnavutköy Yönü)
9654484336	41.1173385	28.8495440	Mescid-i Selam(Sultançiftliği Yönü)
9654484337	41.1157664	28.8515637	Malkoçoğlu (Sultançiftliği Yönü)
9654484338	41.1152441	28.8535699	Hayırlıoğlu Camii (Arnavutköy Yönü);Hayırlıoğlu Camii
9654484339	41.1143740	28.8556514	Hayırlıoğlu Camii (Sultançiftliği Yönü)
9654484366	41.1122973	28.8574289	İsmetpaşa Mahallesi (Sultançiftliği Yönü))
9654484367	41.1125458	28.8576663	İsmetpaşa Mahallesi (Arnavutköy Yönü)
9654484370	41.1077492	28.8600078	İbrahim Yıldız (Arnavutköy Yönü)
9654484464	41.0765320	28.8794870	Gazi Ahmet Muhtarpaşa
9654484465	41.0766520	28.8797340	Gazi Ahmet Muhtarpaşa
9654484466	41.0751280	28.8829310	500 Evler
9654484467	41.0748101	28.8831142	500 Evler
9654484468	41.0736620	28.8863600	Taşköprü
9654484469	41.0735370	28.8861220	Taşköprü
9654484472	41.0714980	28.8895360	Barbaros Hayrettinpaşa Mahallesi
9654484473	41.0716620	28.8896620	Barbaros Hayrettinpaşa Mahallesi
9654484474	41.0698980	28.8937260	Poligon Caddesi
9654484475	41.0697220	28.8936940	Poligon Caddesi
9654484476	41.0677030	28.8967800	Ali Fuat Başgil
9654484477	41.0674680	28.8967700	Ali Fuat Başgil
9654484478	41.0653860	28.9000740	Barbaros Sokak
9654484479	41.0652825	28.8999193	Barbaros Sokak
9654484480	41.0630180	28.9013180	Bosna Çukurçeşme
9654484481	41.0629680	28.9016650	Bosna Çukurçeşme
9654484482	41.0598620	28.9034740	Çukurçeşme Caddesi (Sultançiftliği Yönü);Çukurçeşme Caddesi
9654484483	41.0577090	28.9060650	Sağmalcılar Anadolu Lisesi (Edirnekapı Yönü);Sağmalcılar Anadolu Lisesi
9654484487	41.0575450	28.9067900	Sağmalcılar Anadolu Lisesi
9654484488	41.0546720	28.9101700	Bereç
9654484489	41.0512790	28.9112570	Alperenler
9654484490	41.0512830	28.9110240	Alperenler
9654484491	41.0486050	28.9116450	Uluyol Caddesi
9654484492	41.0467658	28.9112009	Uluyol
9654484493	41.0486210	28.9136000	Sağlık Merkezi
9654484501	41.0460741	28.9160300	Rami Yolu (Sultançiftliği Yönü)
9654484503	41.0429604	28.9180444	Kervan Çeşme (Sultançiftliği Yönü)
9654484504	41.0421194	28.9186821	Kervan Çeşme (Edirnekapı Yönü)
9654484505	41.0409728	28.9205944	Topçular (Sultançiftliği Yönü)
9654484506	41.0400258	28.9212225	Topçular (Edirnekapı Yönü)
9654484519	41.0299538	28.9367477	Edirnekapı
9654484520	41.0305200	28.9368570	Edirnekapı
9654484521	41.0272607	28.9385327	Şehit Yunus Emre Ezer
9654484522	41.0253990	28.9406820	Karagümrük-Şht A.Acarkan
9654484523	41.0233250	28.9431490	Şehit Ahmet Kara
9654484524	41.0212390	28.9457260	Yavuz Selim
9654484525	41.0172938	28.9497497	Fatih
9654484529	41.0130630	28.9572330	Şehzadebaşı
9654643967	41.1152443	28.9986596	Atatürk Meydanı
9654677592	41.1170421	29.0014683	Beykent Üniversitesi
9654677593	41.1171491	29.0013700	Beykent Üniversitesi
9655525820	41.0048978	28.9537166	Yenikapı Marmaray (Aksaray Yönü)
9655637439	41.1226870	28.8810679	Cebeci Köyiçi
9662873758	41.1315012	28.4720078	Çakılköyü Yolu
9662873759	41.1314850	28.4725201	Çakılköyü Yolu
9662873761	41.1273096	28.4784759	Serbest Bölge
9662873762	41.1272863	28.4778501	Serbest Bölge
9662873772	41.1208270	28.4942483	Akçeşme Caddesi
9662873773	41.1195763	28.4946050	Akçeşme Caddesi
9662873780	41.1150210	28.4986158	Çatalca İstanbul Yolu
9662873781	41.1155302	28.4985944	Çatalca İstanbul Yolu
9662873784	41.1062832	28.5056787	Muratbey
9662873791	41.1065827	28.5060080	Muratbey
9662884419	41.0935980	28.5125385	Havaalanı Yolu
9662884420	41.0936253	28.5129181	Havaalanı Yolu
9662884421	41.0864207	28.5153688	Ahmediye
9662884447	41.0818469	28.5185413	Bend Caddesi
9662884448	41.0595400	28.5347802	Tepekent
9662884449	41.0594820	28.5351912	Tepekent
9662884450	41.0490614	28.5430038	Menekşe
9662884451	41.0391652	28.5487573	Millet Caddesi
9662884452	41.0385643	28.5498355	Millet Caddesi
9662884456	41.0348002	28.5519686	Büyükçekmece Vergi Dairesi
9662884457	41.0351997	28.5520346	Büyükçekmece Vergi Dairesi
9662884458	41.0323259	28.5535574	Tepecik İlkokulu
9662884459	41.0328216	28.5537197	Tepecik İlkokulu
9662884467	41.0295519	28.5548060	Tepecik
9662884478	41.0274131	28.5556322	Baraj Yolu
9662884479	41.0271643	28.5561767	Baraj Yolu
9662884480	41.0260722	28.5573122	Sanayi-2
9662884481	41.0249430	28.5583046	Sanayi-2
9662884482	41.0223206	28.5618044	Sanayi
9662884485	41.0223793	28.5621425	Sanayi-2
9674057098	41.0027903	29.2158257	Prof. Dr. Feriha Öz Şehir Hastanesi
9674057099	41.0027616	29.2153526	Prof. Dr. Feriha Öz Şehir Hastanesi
9707913121	41.1589899	28.9132901	Kemerburgaz
9707913142	41.1604130	28.9124980	Cengiz Topel Caddesi
9707913143	41.1605633	28.9120892	Cengiz Topel Caddesi
9707913144	41.1623857	28.9099931	Pirinççiköy Yolu
9707913145	41.1613841	28.9101755	Pirinççiköy Yolu
9707913146	41.1609894	28.9018633	Kumsu Sokak
9707913147	41.1608551	28.9023609	Kumsu Sokak
9707913148	41.1616355	28.8976576	Kemerburgaz Kampüsü
9707913149	41.1617345	28.8978534	Kemerburgaz Kampüsü
9707913150	41.1612066	28.8882616	Habipler Yolu
9707913151	41.1608310	28.8888570	Habipler Yolu
9707913152	41.1623313	28.8843442	Kent Ormanı
9707913179	41.1641087	28.8835630	Kent Ormanı
9707917560	41.1640911	28.8732136	Büyük Bent
9707917561	41.1637242	28.8730571	Büyük Bent
9707917562	41.1666648	28.8771315	Orman Yolu
9707917563	41.1665012	28.8772576	Orman Yolu
9722527222	41.1830614	28.8734538	Köprübaşı Mahallesi
9722527223	41.1471375	28.8404393	Kemerburgaz Yolu
9722527224	41.1473072	28.8400423	Kemerburgaz Yolu
9722527225	41.1521221	28.8463858	Yeşilyayla Mezarlığı
9722527226	41.1521907	28.8460156	Yeşilyayla Mezarlığı
9722527227	41.1636561	28.8496326	Pirinççiköy Mezarlığı
9722527228	41.1637288	28.8494797	Pirinççiköy Mezarlığı
9722527229	41.1642366	28.8506818	Pirinççi Köyü
9722527230	41.1643269	28.8507973	Pirinççi Köyü
9722527231	41.1623476	28.8569416	Armutlu Sokak
9722527232	41.1625031	28.8568772	Armutlu Sokak
9722527233	41.1589510	28.8646449	Göl Mevkii
9722527234	41.1590217	28.8643740	Göl Mevkii
9722527235	41.1622268	28.8652513	Dere Yolu
9722527236	41.1622611	28.8650367	Dere Yolu
9722527237	41.1685893	28.8631940	Çeşme Yolu
9722527238	41.1684136	28.8634408	Çeşme Yolu
9722527239	41.1672985	28.8685076	Paşatarla Yolu
9722527240	41.1672960	28.8687673	Paşatarla Yolu
9722527241	41.1667451	28.9065316	Selanik Bulvarı
9722527242	41.1683483	28.9063116	Selanik Bulvarı
9722527243	41.1703068	28.9040693	Bahçeler
9722527244	41.1708462	28.9035959	Bahçeler
9722527245	41.1749282	28.8962743	Kartal Çeşme
9722527246	41.1747324	28.8960817	Kartal Çeşme
9722527247	41.1762177	28.8927602	Hisar Eğitim Okulları
9722527248	41.1758629	28.8930776	Hisar Eğitim Okulları
9722527249	41.1768199	28.8906958	Göktürk Deresi
9722527250	41.1785238	28.8909962	Göktürk Camii
9722527251	41.1790608	28.8908594	Göktürk Camii
9722527252	41.1819698	28.8906797	Cumhuriyet Caddesi
9722527253	41.1822342	28.8908379	Cumhuriyet Caddesi
9722527255	41.1835807	28.8879036	
9722527260	41.1860272	28.8862165	Göktürk Caddesi
9722527261	41.1861120	28.8859402	Göktürk Caddesi
9722527267	41.1839864	28.8803559	İstanbul Evleri
9722527268	41.1838754	28.8809165	İstanbul Evleri
9722527269	41.1836251	28.8762280	Köprü
9722527270	41.1835019	28.8762092	Köprü
9723510043	41.0199759	28.5779066	Üst Geçit
9723510044	41.0196511	28.5782406	Üst Geçit
9723510045	41.0201699	28.5813490	Büyükçekmece-1
9723510046	41.0212694	28.5823486	Büyükçekmece
9723510055	41.0223387	28.5846707	Büyükçekmece
9723510057	41.0244392	28.5915023	Fatih Mahallesi
9723510058	41.0233768	28.5982346	Tabya-1
9723510059	41.0256432	28.6024342	Tabya
9723510075	41.0242688	28.6037456	Tabya 2
9723510076	41.0240103	28.6232730	TÜYAP
9723510077	41.0223883	28.6231876	TÜYAP
9723510078	41.0170208	28.6382408	Beylikdüzü İSKİ
9723510082	41.0140940	28.6441192	Bizimkent
9723510090	41.0145877	28.6444784	Bizimkent
9723510093	41.0072328	28.6638817	Güzelyurt
9723510094	41.0063315	28.6650568	Güzelyurt
9723510111	41.0000171	28.6977080	Ambarlı Kavşağı
9723557186	40.9998720	28.8807020	Bakırköy Adliyesi
9724325380	41.0488292	28.9438185	Halıcıoğlu 2
9724325401	41.0527996	28.9486409	Bademlik
9724325411	41.0522580	28.9539810	Çıksalın
9724337745	41.0580298	28.9649919	Okmeydanı
9724337746	41.0578616	28.9643459	Okmeydanı
9724337756	41.0601900	28.9663570	Darülaceze
9724337760	41.0640820	28.9696120	Okmeydanı Dereyolu
9724337774	41.0660167	28.9742615	Prof.Dr.Cemil Taşçıoğlu Şehir Hastanesi
9724337775	41.0664280	28.9734500	Prof.Dr.Cemil Taşçıoğlu Şehir Hastanesi
9727646335	41.0945413	29.0968062	Kavacık Aktarma
9727740795	41.0493449	28.5432583	Menekşe
9727740796	41.1412541	28.4634861	Ferhatpaşa İlköğretim Okulu
9727910534	41.0267497	29.0749109	Abdipaşa
9727910535	41.0264093	29.0746406	Abdipaşa
9744154957	41.1090564	28.9921351	Evyap Camii
9744154958	41.1090297	28.9916177	Evyap Camii
9749385780	41.0399962	28.9105054	Şar Sokak
9749385785	41.0392582	28.9112356	
9749965431	41.0062922	29.2145915	Lise Caddesi
9749965432	41.0096080	29.2216520	Tamer Sokak
9749965433	41.0096130	29.2214620	Tamer Sokak
9749965434	41.0109930	29.2236200	Mehtap Sokak
9749965435	41.0110180	29.2237930	Mehtap Sokak
9749965436	41.0135810	29.2265790	Uysal Caddesi
9749965437	41.0134056	29.2266014	Uysal Caddesi
9749965438	41.0155610	29.2290590	Eşref Bitlis Parkı
9749965439	41.0156910	29.2293060	Eşref Bitlis Parkı
9768243719	41.0197172	29.2350624	Gençlik Caddesi
9768243720	41.0196266	29.2349455	Gençlik Caddesi
9773454514	41.1820860	28.7521742	Şirindere Camii
9773508062	41.1820987	28.7527592	Şirindere Camii
9773508068	41.1843595	28.7434751	Necip Fazıl Caddesi
9773508070	41.1847450	28.7411081	Arnavutköy
9773508073	41.1858855	28.7399145	Redif Sokak
9773508078	41.1858815	28.7371250	Osmangazi Caddesi
9773508080	41.1839578	28.7367817	Cemal Reşit Bey İlköğretim Okulu
9773508081	41.1840910	28.7367682	Cemal Reşit Bey İlköğretim Okulu
9773508082	41.1839093	28.7391796	Mehmet Akif Caddesi
9773508084	41.1801162	28.7460809	Fatih Caddesi
9773508085	41.1799670	28.7456733	Fatih Caddesi
9773508086	41.1783940	28.7472370	Arnavutköy Devlet Hastanesi
9773508087	41.1780090	28.7472016	Arnavutköy Devlet Hastanesi
9773508118	41.1626294	28.7723765	Çamlık
9773508119	41.1620560	28.7726951	Çamlık
9773508120	41.1606307	28.7767859	Boğazköy Tesisler
9773508147	41.1601642	28.7812464	Balcılar
9773508148	41.1598673	28.7810962	Balcılar
9773508172	41.1550620	28.7877070	Orman İşletmesi
9773508175	41.1514524	28.7874886	Kayabaşı Yolu
9773508176	41.1512997	28.7871481	Kayabaşı Yolu
9773508183	41.1477861	28.7908135	Fenertepe
9773508184	41.1479921	28.7911031	Fenertepe
9773508185	41.1451876	28.7955127	Fenertepe Yolu (Arnavutköy Yönü)
9773508186	41.1456592	28.7946303	Fenertepe Yolu (Fenertepe-Arnavutköy Yönü)
9773508187	41.1449957	28.7959526	Fenertepe Yolu (Fenertepe Yönü)
9773508195	41.1439813	28.7970610	Fenertepe Yolu (Sondurak Yönü)
9773508224	41.1422118	28.7999491	Sincanlar
9773508242	41.1423452	28.8003514	Sincanlar
9773508252	41.0163908	28.9406764	Oğuzhan
9773508253	41.0184408	28.9377125	İstanbul Emniyet Müdürlüğü
9773508254	41.0208561	28.9342423	Bezmialem Vakıf Üniversitesi
9773508255	41.0235387	28.9303225	Ulubatlı
9773508257	41.1097137	28.8494658	Şehit Furkan Doğan İmam Hatip Ortaokulu
9773508258	41.1088566	28.8488465	Şehit Furkan Doğan İmam Hatip Ortaokulu
9773508259	41.1144255	28.8517920	Malkoçoğlu
9823343184	41.1035323	28.8690220	75. Yıl İlköğretim Okulu
9835471344	41.2686132	28.6690062	Arnavutköy Beşyol
9847648246	41.1017520	28.8809821	Esentepe
9892942565	41.0903548	28.9143618	Nur Sitesi
9893991870	41.0163334	28.5624788	Büyükçekmece İskele
9893997863	41.0198943	28.6881207	Belediye Alt Geçidi
9906485551	40.9606330	29.1567130	Eskicibag Caddesi
9917474253	41.1037823	28.8691205	75. Yıl İlköğretim Okulu
9948312162	41.0717019	28.9414313	Yıldıztabya Alibeyköy Caddesi
9960054184	40.9906102	29.0347199	Barış Manço
9962246573	41.1607523	28.9196505	Bahçeköy Caddesi (Kemerburgaz Yönü)
9971619687	40.8676189	29.3392995	Toki Oruç Reis İ.ö.o.
9971619688	40.8673511	29.3391777	Toki Oruç Reis İ.ö.o.
9980243237	41.1445583	29.1001922	Türk Alman Üniversitesi
9981261858	41.0532235	28.9111492	Bereç
9981289675	40.9703200	29.2500630	Otoban Çıkışı
9981289676	40.9696987	29.2527116	Dumlupınar
9981289677	40.9710580	29.2497753	Sultanbeyli Otoban Kavşağı
9983374489	40.9874371	29.1095103	Siteler Girişi
9983374490	40.9894935	29.1122455	Mustafa Kanat Cami
9983374491	40.9893990	29.1119171	Mustafa Kanat Cami
9983374492	40.9916344	29.1142076	Ataşehir Bulvarı
9983374493	40.9917132	29.1141046	Ataşehir Bulvarı
9983374494	40.9922162	29.1284869	Ataşehir
9983374495	40.9923540	29.1284265	Ataşehir
9983374496	40.9914930	29.1317054	Ataşehir Siteler
9983374503	40.9875429	29.1092776	Siteler Girişi
9983374504	40.9851653	29.1079596	Vedat Günyol Caddesi
9983374506	40.9813491	29.1046682	Zübeyde Hanım Öğretmenevi
9983374507	40.9819808	29.1047651	Zübeyde Hanım Öğretmenevi
9983374508	40.9761468	29.0990761	Kozyatağı Metro
10020345404	40.8887200	29.1900757	Çarşı
10028924172	41.0336656	29.1572007	Yurtsever Caddesi
10044739364	41.0188081	28.6281365	Beykent
10053367363	41.0314891	28.6742422	Birlik Caddesi
10059464843	41.0144760	28.6261768	Beylikdüzü Devlet Hastanesi
10072716717	40.9363401	29.3627359	İstanbul Bulvarı
10076262613	41.0909368	28.8642237	İstek Vakfı (Edirnekapı Yönü)
10104670483	41.0865490	28.9079000	Spor Tesisi
10104719895	41.0785641	28.9334802	
10110158166	41.0761070	28.9392550	Çırçır
10110158197	41.0766964	28.9369791	Sayayolu Caddesi
10132472529	41.0909756	28.8826883	Üçyol
10138618273	41.0442101	28.9168386	Rami Yolu (Edirnekapı Yönü)
10138618281	41.0459918	28.9170650	Talimhane Caddesi
10138618282	41.0482689	28.9205389	Rami
10138618283	41.0543607	28.9109888	Yüksel Sokak
10139056517	41.0453377	28.8133382	ikitelli köprüsü
10142300829	41.0715334	28.9412784	Yıldıztabya Alibeyköy Caddesi
10143131997	40.9797239	29.0846952	Üsküdar Caddesi
10144670470	41.0581930	28.9168763	Gaziosmanpaşa Belediye
10144907471	41.0927261	28.9065936	Su Kemeri
10155546572	41.0629050	29.0368959	Kuruçeşme Üstü
10159076241	41.0906210	28.9615875	Afet Koordinasyon Merkezi
10159076285	41.0831910	28.9493769	Alibeyköy Gasilhanesi
10159956578	41.0269917	29.2405106	Ulusal Caddesi
10188258357	41.0831031	28.9085545	Hekimsuyu Caddesi
10188258358	41.0829465	28.9081437	Hekimsuyu Caddesi
10188258359	41.0786864	28.9067228	Profesör Doktor Gazi Yaşargil İmam Hatip Ortaokulu
10188258360	41.0792940	28.9066040	Profesör Doktor Gazi Yaşargil İmam Hatip Ortaokulu;Prof.dr.gazi Yaşargil İmam Hatip Ortaokulu
10203909589	41.0867750	28.8940083	634. Sokak
10205083877	41.0854901	28.8982911	Gaziosmanpaşa Eğitim Ve Araştırma Hastanesi
10209372210	41.0845991	28.9109601	Küçükköy İmam Hatip Lisesi
10209372211	41.0844463	28.9104990	Küçükköy İmam Hatip Lisesi
10228753861	41.0697200	28.8849311	Cevatpaşa Ortaokulu
10228753862	41.0695021	28.8853046	Cevatpaşa Ortaokulu
10255340294	41.0691721	28.9269761	Mimar Sinan Camii
10279865347	41.0626565	29.0334198	Site Yolu
10279865393	41.0596626	29.0311833	Esenevler
10293149684	41.0134947	28.8965938	Tozkoparan
10293195154	41.0133311	28.8964624	Tozkoparan
10296518289	41.0050526	29.2542672	Yenidoğan
10296518290	40.9881665	29.2864629	Battalgazi Mahallesi
10296542540	40.9921711	28.9184216	Kazlıçeşme
10296542541	40.9928239	28.9171987	Kazlıçeşme
10544163944	40.9863910	28.6758630	Akasya
10544163945	40.9864660	28.6759870	Akasya
10544163946	40.9936940	28.6722420	19 Mayıs Caddesi
10544163947	40.9938510	28.6723870	19 Mayıs Caddesi
10544163949	41.0361650	28.7039480	Yeşiltepe
10544163950	40.9991320	28.7087340	İstiklal Caddesi
10544163951	40.9990330	28.7086830	İstiklal Caddesi
10544163952	41.0012720	28.7049570	Mustafa Kemalpaşa Camii
10544163953	41.0011280	28.7050370	Mustafa Kemalpaşa Camii
10544163954	41.0028790	28.7020010	Eğitim Uygulama Okulu
10544163955	41.0029100	28.7021610	Eğitim Uygulama Okulu
10544163956	41.0045030	28.6991240	Sebahattin Zaim İlkokulu
10544163957	41.0046050	28.6952350	Oktay Rıfat Caddesi
10544163958	41.0045240	28.6952760	Oktay Rıfat Caddesi
10544163959	41.0106750	28.6887447	Uzunyayla
10544163960	41.0104514	28.6886347	Uzunyayla
10544163961	41.0190470	28.6846600	Rıfat Ilgaz Caddesi
10544163962	41.0191700	28.6843530	Rıfat Ilgaz Caddesi
10555524065	40.9689164	29.0718120	Taş Mektep
10556454627	41.0450644	28.9048017	Tuna Caddesi
10563296613	41.0569845	28.9624410	Okmeydanı kavşağı
10564943726	40.9747274	29.0752239	Erenköy İstasyonu
10564943727	40.9748088	29.0754571	Erenköy İstasyonu
10564943728	40.9771282	29.0767040	Ethemefendi
10589815838	40.9538679	29.1319136	Marmara Üniversitesi Kontrol Kapısı
10681391319	41.0162380	29.0261898	Zeynep Kamil Hastanesi
10681391320	41.0160122	29.0263402	Zeynep Kamil Hastanesi
10682611048	41.0141464	28.5451977	Büyükçekmece Adliyesi
10682664189	41.0139311	28.5456245	Büyükçekmece Adliyesi
10698928597	41.0617933	28.6238250	Fabrikalar
10698928681	41.0658854	28.6215507	Çakmaklı
10698964629	41.0479494	28.6275849	San-Bir 3
10698964630	41.0376686	28.6245499	San-Bir 2
10698964631	41.0334414	28.6233388	San-Bir 1
10698973528	41.0535560	28.6276607	Aziz Demir
10698999144	41.0278518	28.6266720	Halkkent Sitesi
10699000749	41.0251791	28.6282292	Hadımköy Yolu
10699279968	41.0119075	28.8965815	Arı Sitesi
10701960945	41.0102213	28.8955894	Arı Sitesi
10723033172	40.9660814	29.1022364	Kocayol Caddesi
10723244906	40.9800528	28.7060243	Ambarlı Siteler
10723315433	40.9997707	28.7131133	Üniversite Mahallesi
10723315434	40.9997005	28.7127710	Üniversite Mahallesi
10723340196	41.0033823	28.7093804	Orhangazi Caddesi
10723351712	41.0050420	28.7073784	Mustafa Kemal Mahallesi
10726785484	40.9749929	29.0424508	Kalamış
10728463347	40.9696064	29.0375737	Fenerbahçe
10728496990	40.9727484	29.0400414	Münir Nürettin Selçuk Caddesi
10729641238	40.9676118	29.0571146	Göztepe Park
10729666476	40.9627231	29.0702704	Kantarcı
10729701470	40.9644668	29.0721286	Bağdat Çıkışı
10729729976	40.9670321	29.0706104	Erenköy
10729729977	40.9669887	29.0704467	Erenköy
10731039074	40.9762581	29.0760445	Ethemefendi
10735290345	40.9720662	29.0613745	Göztepe
10735290346	40.9719591	29.0611236	Göztepe
10740098878	40.9760392	29.0775171	Arsan Sokak
10749295599	40.9744419	29.0634959	Çiftekonaklar
10749295600	40.9745886	29.0633570	Çiftekonaklar
10751811638	40.9785618	29.0846149	Böcekli Camii
10751811645	40.9788538	29.0846809	Böcekli Camii
10751811646	40.9773592	29.0860615	Bayar Caddesi
10761168521	40.9722929	29.0961449	Kozyatağı
10761168526	40.9722365	29.0965639	Kozyatağı
10761168577	40.9747187	29.0925853	Eski Köşkler
10761168578	40.9751588	29.0922037	Eski Köşkler
10765396780	40.9931316	29.1060597	Ülker Spor ve Etkinlik Salonu
10765396781	40.9895581	29.1033563	Ataşehir Ağız ve Diş Sağlığı Hastanesi
10768433710	41.0173416	28.5595774	E-5 Mimar Sinan
10768438377	41.0167794	28.5566445	Büyükçekmece Mimar Sinan Devlet Hastanesi
10768997823	41.0171021	28.5598854	E-5 Mimar Sinan
10768997824	41.0181550	28.5629541	Mimar Sinan
10769049665	40.9869524	29.1040607	Kardelen Sokak
10770749993	40.9268193	29.3108548	Havaalanı Kavşağı
10772997105	40.9728407	29.0450912	Şehit Selin Çelik
10773380164	40.9744663	29.0473153	Dr. Faruk Ayanoğlu
10773380165	40.9753693	29.0504644	Selami Çeşme
10773804266	41.0361109	28.7038659	Yeşiltepe
10778736167	41.0411555	28.6997727	Gazi Caddesi
10778736168	41.0410983	28.6996693	Gazi Caddesi
10794854882	41.0469162	28.9083134	Doktor Fazıl Küçük Parkı
10804059379	40.9702879	28.8055749	Prof. Dr. Murat Dilmener Acil Durum Hastanesi
10829804107	40.9789353	29.0905116	Mehpare Sokak
10831799579	40.9752078	29.0985024	Kozyatağı Metro
10831903323	40.9779349	29.0934527	Sümer Sokak
10832808730	40.9692793	29.1021044	Fatih Sultan Mehmet Eğitim ve Araştırma Hastanesi
10833857155	40.9814270	29.0841674	Sahrayıcedit
10863322222	41.1126422	28.9975835	Ayazağa İlkokulu
10884456547	41.0350954	29.0436020	15 Temmuz Şehitler Köprüsü
10906414344	41.0767230	28.9375081	Sayayolu Caddesi
10941385046	41.0673113	28.9908471	Mecidiyeköy Metrobüs
10945166644	41.0928596	28.8950076	Sarıkent Sitesi
10949301680	40.9796110	29.0531204	Özgürlük Parkı
10956676216	41.0231957	29.0159209	Ahmediye
10973844902	41.0201110	28.9646578	Eminönü (Peronu 1)
10973844903	41.0202660	28.9649281	Eminönü (Peronu 2)
10973844904	41.0202510	28.9651773	Eminönü (Peronu 3)
10973869405	41.0201210	28.9653993	Eminönü (Peronu 4)
10973869406	41.0200385	28.9655590	Eminönü (Peronu 5)
10973869407	41.0199569	28.9657032	Eminönü (Peronu 6)
10976629419	41.0210683	29.0173129	Halil Rüştü İlkokulu
10976629438	41.0212922	29.0168624	Halil Rüştü İlkokulu
10978923277	41.0196591	28.9658059	Eminönü
10978923278	41.0195629	28.9659257	Eminönü
10978923279	41.0194679	28.9660623	Eminönü
10978923280	41.0193958	28.9662110	Eminönü
10984950299	40.9938385	29.0381059	Kadıköy Belediyesi
11003226259	40.9808490	29.2740560	Kubbe Caddesi
11006314360	40.9753940	28.7179324	Ambarlı İlkokulu
11007755294	41.0587235	28.8457945	Basın Tesisleri
11007755295	41.0644927	28.8283042	İSTOÇ Camii
11007975563	41.0585448	28.8438334	Medipol Üniversitesi Hastanesi
11013008244	40.9971972	29.0267897	Hamza Yerlikaya
11014605989	41.0167540	29.0433786	Tophanelioğlu Caddesi
11016865480	41.2242631	29.2178640	Riva
11059824961	40.9004020	29.3680336	Şekerpınar Sapağı
11073401991	40.9859781	29.0740065	Şair Arşi Caddesi
11085213587	41.1030786	28.9854964	Vadistanbul
11088652387	41.0676370	28.9625640	Sadabad Osmanlı Arşivi
11088652397	41.0677520	28.9637140	Sadabad Osmanlı Arşivi
11088666316	41.0721260	28.9666190	Kağıthane Belediyesi
11105073188	41.1183184	29.0358994	Site Yolu
11112533948	41.1210788	29.0378539	Pınar Mahallesi Yolu
11126957624	41.0959896	28.9615454	Karayolları 1. Bölge Müdürlüğü
11126957633	41.0955788	28.9614950	Karayolları 1. Bölge Müdürlüğü
11132389836	41.0795006	28.9281932	Veysel Karani Camii
11140001349	41.1095011	29.0060976	Maslak Kültür Merkezi
